time,num,Longitude,Latitude,Altitude,Pitch,Yaw,Roll,VelocityX,VelocityY,VelocityZ,BatteryVolts,GPSFix,NumberOfSatellites,Interval(sec),Latency(sec),Bandwidth(MBits/sec)
2026-01-28 16:56:39.754647,36.0000000000,-78.6962750000,35.7273025000,13.2100000000,0.0033090918,0.0026683847,0.0027814899,-0.0100000000,0.0100000000,-2.4400000000,12.5870000000,6.0000000000,10.0000000000,0.3946806712,5.2187690883,0.3156677538
2026-01-28 16:56:40.761256,37.0000000000,-78.6962749000,35.7273025000,15.7070000000,0.0025673269,0.0027968388,0.0025673790,-0.0100000000,0.0100000000,-2.4500000000,12.5870000000,6.0000000000,10.0000000000,0.4240763848,6.1211908501,0.2163765154
2026-01-28 16:56:41.766555,38.0000000000,-78.6962749000,35.7273025000,18.2070000000,0.0038827783,0.0038989054,0.0025850993,-0.0100000000,0.0000000000,-2.4500000000,12.5870000000,6.0000000000,10.0000000000,1.4201608542,6.0314607151,0.2098048756
2026-01-28 16:56:42.772118,39.0000000000,-78.6962749000,35.7273025000,20.6380000000,0.0032985574,0.0024104451,0.0033973053,-0.0100000000,0.0000000000,-2.1800000000,12.5870000000,6.0000000000,10.0000000000,2.4165070941,5.9417069990,0.2032315088
2026-01-28 16:56:43.778629,40.0000000000,-78.6962749000,35.7273025000,22.5790000000,0.0033282898,0.0036331613,0.0049769855,-0.0100000000,0.0100000000,-1.6100000000,12.5870000000,6.0000000000,10.0000000000,3.4137926129,5.8518686701,0.1966519451
2026-01-28 16:56:44.784365,41.0000000000,-78.6962750000,35.7273025000,23.9490000000,0.0032603650,0.0027778056,0.0045342236,-0.0100000000,0.0100000000,-1.1000000000,12.5870000000,6.0000000000,10.0000000000,4.4103100689,5.7620995304,0.1900774487
2026-01-28 16:56:45.786196,42.0000000000,-78.6962750000,35.7273025000,24.7840000000,0.0037845166,0.0029343211,0.0042008446,-0.0100000000,0.0200000000,-0.5500000000,12.5870000000,6.0000000000,10.0000000000,5.4029582940,5.6726789421,0.1835284794
2026-01-28 16:56:47.090672,43.0000000000,-78.6962750000,35.7273025000,24.9930000000,0.0039470117,0.0032622889,0.0038140377,-0.0200000000,0.0200000000,0.0500000000,12.5870000000,6.0000000000,10.0000000000,6.6954777495,5.5562450966,0.1750011179
2026-01-28 16:56:48.096800,44.0000000000,-78.6962750000,35.7273025000,24.9510000000,0.0039158901,0.0029802474,0.0039325459,-0.0200000000,0.0200000000,-0.0300000000,12.5870000000,6.0000000000,10.0000000000,7.6923835490,5.4664409738,0.1684240594
2026-01-28 16:56:49.098709,45.0000000000,-78.6962750000,35.7273026000,24.9530000000,0.0045478595,0.0032456042,0.0035557775,-0.0200000000,0.0200000000,-0.0400000000,12.5870000000,6.0000000000,10.0000000000,8.6851091384,5.3770134163,0.1618745797
2026-01-28 16:56:50.105049,46.0000000000,-78.6962752000,35.7273026000,24.9570000000,-0.0209781174,0.0041783694,-0.0602473393,0.0300000000,-0.1400000000,-0.0200000000,12.5870000000,6.0000000000,10.0000000000,9.6822252167,5.2871903511,0.1552961339
2026-01-28 16:56:51.107064,47.0000000000,-78.6962888000,35.7273069000,24.9500000000,-0.1103500947,0.0216700677,-0.2961122394,0.9400000000,-2.4100000000,-0.0200000000,12.5870000000,6.0000000000,10.0000000000,10.6750558187,5.1977533337,0.1487459614
2026-01-28 16:56:52.110459,48.0000000000,-78.6963268000,35.7273192000,24.9550000000,-0.0889436975,0.0100744888,-0.2501689196,1.6700000000,-4.1800000000,-0.0300000000,12.5870000000,6.0000000000,10.0000000000,11.6692536131,5.1081931558,0.1421867689
2026-01-28 16:56:53.115924,49.0000000000,-78.6963757000,35.7273350000,24.9570000000,-0.0619459040,0.0090192929,-0.2044273317,1.8000000000,-4.5200000000,-0.0200000000,12.5870000000,6.0000000000,10.0000000000,12.6655027037,5.0184481913,0.1356140430
2026-01-28 16:56:54.123343,50.0000000000,-78.6964273000,35.7273517000,24.9620000000,-0.0591648258,0.0058519621,-0.2026131749,1.8500000000,-4.6800000000,-0.0200000000,12.5870000000,6.0000000000,10.0000000000,13.6636879316,4.9285288139,0.1290285435
2026-01-28 16:56:55.124287,51.0000000000,-78.6964802000,35.7273688000,24.9720000000,-0.0544051714,0.0057653352,-0.1927465647,1.8400000000,-4.7100000000,-0.0100000000,12.5870000000,6.0000000000,10.0000000000,14.6554572472,4.8391874003,0.1224853728
2026-01-28 16:56:56.236319,52.0000000000,-78.6965380000,35.7273872000,24.9820000000,-0.0539728291,0.0053836256,-0.1882510334,1.8200000000,-4.6900000000,-0.0100000000,12.5870000000,6.0000000000,10.0000000000,15.7572964676,4.7399305752,0.1152160189
2026-01-28 16:56:57.238656,53.0000000000,-78.6965902000,35.7274039000,24.9910000000,-0.0548154674,0.0055002677,-0.1881594360,1.8200000000,-4.6600000000,0.0000000000,12.5870000000,6.0000000000,10.0000000000,16.7504461657,4.6504648128,0.1086637412
2026-01-28 16:56:58.242175,54.0000000000,-78.6966415000,35.7274203000,24.9980000000,-0.0198833272,0.0008180924,-0.0987836048,1.7400000000,-4.4500000000,0.0000000000,12.5870000000,6.0000000000,10.0000000000,17.7447669821,4.5608935527,0.1021037370
2026-01-28 16:56:59.246336,55.0000000000,-78.6966856000,35.7274344000,24.9990000000,0.0164815374,-0.0012934553,0.0072289864,1.3000000000,-3.3800000000,0.0000000000,12.5870000000,6.0000000000,10.0000000000,18.7397239616,4.4712649852,0.0955395358
2026-01-28 16:57:00.725464,56.0000000000,-78.6967242000,35.7274465000,25.0050000000,0.0538763590,0.0015302635,0.1325247288,0.4000000000,-1.0900000000,0.0000000000,12.5870000000,6.0000000000,10.0000000000,20.2052944783,4.3392422056,0.0858704747
2026-01-28 16:57:01.727912,57.0000000000,-78.6967296000,35.7274481000,25.0060000000,0.0210120995,-0.0015785212,0.0565462597,0.0000000000,-0.0200000000,0.0000000000,12.5870000000,6.0000000000,10.0000000000,21.1985540084,4.2497665492,0.0793174724
2026-01-28 16:57:02.730519,58.0000000000,-78.6967281000,35.7274478000,25.0030000000,0.0024084137,-0.0021825752,0.0054140468,-0.0700000000,0.2000000000,0.0000000000,12.5870000000,6.0000000000,10.0000000000,22.1919713109,4.1602766802,0.0727634291
2026-01-28 16:57:03.732783,59.0000000000,-78.6967288000,35.7274477000,25.0000000000,-0.0668672323,0.0080113625,-0.2947195172,0.2100000000,-1.0100000000,0.0000000000,12.5870000000,6.0000000000,10.0000000000,23.1850487178,4.0708174300,0.0662116284
2026-01-28 16:57:04.739081,60.0000000000,-78.6967531000,35.7274522000,25.0040000000,-0.0757221207,0.0113079688,-0.3574408293,0.8000000000,-3.4600000000,0.0000000000,12.5870000000,6.0000000000,10.0000000000,24.1821229433,3.9809981350,0.0596334587
2026-01-28 16:57:05.741612,61.0000000000,-78.6967993000,35.7274611000,25.0080000000,-0.0374395698,-0.0009046774,-0.2245033383,1.0600000000,-4.5600000000,0.0000000000,12.5870000000,6.0000000000,10.0000000000,25.1754649107,3.8915150524,0.0530799124
2026-01-28 16:57:07.746823,62.0000000000,-78.6969066000,35.7274813000,24.9980000000,-0.0324155241,-0.0017741228,-0.2120501548,1.1100000000,-4.9200000000,0.0000000000,12.5870000000,6.0000000000,10.0000000000,27.1622962184,3.7125356114,0.0399718477
2026-01-28 16:57:08.752660,63.0000000000,-78.6969618000,35.7274916000,25.0000000000,-0.0309233759,-0.0020671564,-0.2045965344,1.1200000000,-4.9400000000,0.0000000000,12.5870000000,6.0000000000,10.0000000000,28.1589138675,3.6227574461,0.0333966902
2026-01-28 16:57:09.758558,64.0000000000,-78.6970224000,35.7275029000,25.0010000000,-0.0304654054,-0.0023264301,-0.2005811781,1.1000000000,-4.8800000000,0.0000000000,12.5870000000,6.0000000000,10.0000000000,29.1555918862,3.5329738425,0.0268211345
2026-01-28 16:57:10.760371,65.0000000000,-78.6970766000,35.7275131000,25.0040000000,-0.0312991031,-0.0026091505,-0.2019957155,1.1000000000,-4.8700000000,0.0000000000,12.5870000000,6.0000000000,10.0000000000,30.1482223555,3.4435548537,0.0202722824
2026-01-28 16:57:11.765868,66.0000000000,-78.6971308000,35.7275232000,25.0050000000,-0.0312770791,-0.0019990539,-0.2009419501,1.1000000000,-4.8500000000,0.0000000000,12.5870000000,6.0000000000,10.0000000000,31.1445031527,3.3538070329,0.0136993473
2026-01-28 16:57:12.772040,67.0000000000,-78.6971847000,35.7275334000,25.0050000000,-0.0315088294,-0.0022983234,-0.2018071860,1.1100000000,-4.8500000000,0.0000000000,12.5870000000,6.0000000000,10.0000000000,32.1414525807,3.2639989799,0.0071220009
2026-01-28 16:57:13.777571,68.0000000000,-78.6972386000,35.7275435000,25.0040000000,-0.0319701098,-0.0022999174,-0.2027229071,1.1000000000,-4.8400000000,0.0000000000,12.5870000000,6.0000000000,10.0000000000,0.1848341893,0.2182767112,0.9437015993
2026-01-28 16:57:14.784125,69.0000000000,-78.6972922000,35.7275536000,25.0050000000,-0.0325020142,-0.0016081814,-0.2070197165,1.1100000000,-4.8700000000,0.0000000000,12.5870000000,6.0000000000,10.0000000000,0.1516498006,1.2157913579,0.4397513514
2026-01-28 16:57:16.655624,70.0000000000,-78.6973896000,35.7275719000,25.0050000000,-0.0313574374,-0.0017503259,-0.2027216256,1.1100000000,-4.8600000000,0.0000000000,12.5870000000,6.0000000000,10.0000000000,0.1839086419,2.9748801493,0.5310562311
2026-01-28 16:57:17.743097,71.0000000000,-78.6974491000,35.7275832000,25.0050000000,-0.0311039947,-0.0019969910,-0.2005382627,1.1100000000,-4.8500000000,0.0000000000,12.5870000000,6.0000000000,10.0000000000,1.2672020195,2.9310770918,0.5130697402
2026-01-28 16:57:18.748579,72.0000000000,-78.6975028000,35.7275933000,25.0050000000,-0.0316509418,-0.0019599544,-0.2036050558,1.1100000000,-4.8500000000,0.0000000000,12.5870000000,6.0000000000,10.0000000000,2.2688193676,2.8905766114,0.4964393595
2026-01-28 16:57:19.755032,73.0000000000,-78.6975569000,35.7276035000,25.0040000000,-0.0312478952,-0.0022951278,-0.2003986984,1.1000000000,-4.8400000000,0.0000000000,12.5870000000,6.0000000000,10.0000000000,3.2714039915,2.8500370191,0.4797929185
2026-01-28 16:57:20.760776,74.0000000000,-78.6976104000,35.7276135000,25.0040000000,-0.0325435884,-0.0013446981,-0.2057832330,1.1100000000,-4.8500000000,0.0000000000,12.5870000000,6.0000000000,10.0000000000,4.2732822210,2.8095259899,0.4631582062
2026-01-28 16:57:21.766645,75.0000000000,-78.6976644000,35.7276237000,25.0040000000,-0.0173325371,-0.0048367921,-0.1416753232,1.0900000000,-4.7900000000,0.0000000000,12.5870000000,6.0000000000,10.0000000000,5.2752851534,2.7690099184,0.4465214234
2026-01-28 16:57:22.773129,76.0000000000,-78.6977128000,35.7276328000,24.9990000000,0.0095643708,-0.0067486768,-0.0140303262,0.8500000000,-3.7900000000,0.0000000000,12.5870000000,6.0000000000,10.0000000000,6.2779006342,2.7284690784,0.4298744701
2026-01-28 16:57:23.778529,77.0000000000,-78.6977504000,35.7276397000,24.9990000000,0.0280159879,-0.0058606318,0.0947984084,0.4700000000,-2.1900000000,0.0000000000,12.5870000000,6.0000000000,10.0000000000,7.2794363772,2.6879718976,0.4132454443
2026-01-28 16:57:24.780802,78.0000000000,-78.6977654000,35.7276424000,25.0030000000,0.0296598002,-0.0059612952,0.1216491088,0.1000000000,-0.5300000000,0.0000000000,12.5870000000,6.0000000000,10.0000000000,8.2778570991,2.6476006731,0.3966681388
2026-01-28 16:57:25.786022,79.0000000000,-78.6977667000,35.7276427000,25.0020000000,0.0086858552,-0.0072367322,0.0356831737,-0.0400000000,0.1600000000,0.0000000000,12.5870000000,6.0000000000,10.0000000000,9.2792133107,2.6071107517,0.3800420939
2026-01-28 16:57:26.798081,80.0000000000,-78.6977643000,35.7276424000,24.9990000000,-0.0191396363,-0.0063569779,-0.0871733949,-0.0100000000,0.0600000000,0.0000000000,12.5870000000,6.0000000000,10.0000000000,10.2873825311,2.5663453458,0.3633029289
2026-01-28 16:57:28.659207,81.0000000000,-78.6978043000,35.7276500000,25.0020000000,-0.0705944821,0.0035714265,-0.3295063376,0.9600000000,-4.1000000000,-0.0100000000,12.5870000000,6.0000000000,10.0000000000,12.1413550597,2.4913798130,0.3325204459
2026-01-28 16:57:29.744202,82.0000000000,-78.6978590000,35.7276605000,25.0000000000,-0.0353287682,-0.0064141839,-0.2160774469,1.1000000000,-4.7100000000,0.0000000000,12.5870000000,6.0000000000,10.0000000000,13.2221798820,2.4476765718,0.3145749417
2026-01-28 16:57:30.750837,83.0000000000,-78.6979128000,35.7276707000,24.9950000000,-0.0338449888,-0.0059327283,-0.2159789205,1.1100000000,-4.8700000000,0.0000000000,12.5870000000,6.0000000000,10.0000000000,14.2249458224,2.4071296480,0.2979254903
2026-01-28 16:57:31.756602,84.0000000000,-78.6979678000,35.7276810000,24.9960000000,-0.0329883881,-0.0072199707,-0.2074270397,1.1200000000,-4.9400000000,0.0000000000,12.5870000000,6.0000000000,10.0000000000,15.2268452182,2.3666177629,0.2812904265
2026-01-28 16:57:32.761127,85.0000000000,-78.6980231000,35.7276914000,24.9970000000,-0.0319515578,-0.0070882794,-0.2010720074,1.1100000000,-4.9100000000,0.0000000000,12.5870000000,6.0000000000,10.0000000000,16.2275090613,2.3261558376,0.2646758773
2026-01-28 16:57:33.767389,86.0000000000,-78.6980778000,35.7277016000,24.9980000000,-0.0315790698,-0.0073393071,-0.1989544779,1.1000000000,-4.8800000000,0.0000000000,12.5870000000,6.0000000000,10.0000000000,17.2299034432,2.2856239377,0.2480325951
2026-01-28 16:57:34.773301,87.0000000000,-78.6981320000,35.7277118000,25.0000000000,-0.0328911841,-0.0067907618,-0.2032014132,1.1000000000,-4.8500000000,0.0000000000,12.5870000000,6.0000000000,10.0000000000,18.2319492183,2.2451061338,0.2313951009
2026-01-28 16:57:35.778503,88.0000000000,-78.6981857000,35.7277219000,25.0010000000,-0.0328370519,-0.0068088239,-0.2042174488,1.1100000000,-4.8700000000,0.0000000000,12.5870000000,6.0000000000,10.0000000000,19.2332875788,2.2046169342,0.2147693523
2026-01-28 16:57:36.784352,89.0000000000,-78.6982453000,35.7277331000,25.0020000000,-0.0329084136,-0.0066331034,-0.2020196915,1.1000000000,-4.8600000000,0.0000000000,12.5870000000,6.0000000000,10.0000000000,20.2352706199,2.1641016670,0.1981328998
2026-01-28 16:57:37.790056,90.0000000000,-78.6982992000,35.7277432000,25.0010000000,-0.0335235707,-0.0070406930,-0.2021466345,1.1100000000,-4.8600000000,0.0000000000,12.5870000000,6.0000000000,10.0000000000,21.2371090669,2.1235922464,0.1814988480
2026-01-28 16:57:38.814164,91.0000000000,-78.6983532000,35.7277534000,25.0010000000,-0.0327785201,-0.0071925903,-0.2008870393,1.1000000000,-4.8500000000,0.0000000000,12.5870000000,6.0000000000,10.0000000000,22.2572808725,2.0823415150,0.1645603978
2026-01-28 16:57:39.819893,92.0000000000,-78.6984071000,35.7277635000,25.0010000000,-0.0327808447,-0.0072069429,-0.2028980851,1.1000000000,-4.8500000000,0.0000000000,12.5870000000,6.0000000000,10.0000000000,23.2591443111,2.0418310838,0.1479259311
2026-01-28 16:57:41.215988,93.0000000000,-78.6984825000,35.7277777000,25.0010000000,-0.0333972238,-0.0064450498,-0.2047503591,1.1100000000,-4.8500000000,0.0000000000,12.5870000000,6.0000000000,10.0000000000,24.6498733045,1.9855968418,0.1248349246
2026-01-28 16:57:42.747362,94.0000000000,-78.6985634000,35.7277930000,25.0040000000,-0.0324065387,-0.0070515838,-0.2015114874,1.1100000000,-4.8600000000,0.0000000000,12.5870000000,6.0000000000,10.0000000000,26.1753614478,1.9239136024,0.0995064410
2026-01-28 16:57:43.754360,95.0000000000,-78.6986173000,35.7278031000,25.0040000000,-0.0331691168,-0.0068578436,-0.2028736472,1.1100000000,-4.8600000000,0.0000000000,12.5870000000,6.0000000000,10.0000000000,27.1784890009,1.8833520567,0.0828509855
2026-01-28 16:57:44.759693,96.0000000000,-78.6986715000,35.7278133000,25.0010000000,-0.0319512524,-0.0073479582,-0.1987468451,1.1000000000,-4.8400000000,0.0000000000,12.5870000000,6.0000000000,10.0000000000,28.1799579296,1.8428575776,0.0662230690
2026-01-28 16:57:45.761901,97.0000000000,-78.6987238000,35.7278231000,25.0010000000,-0.0041539255,-0.0107622873,-0.0775217265,1.0000000000,-4.4200000000,0.0000000000,12.5870000000,6.0000000000,10.0000000000,29.1783138775,1.8024889722,0.0496468390
2026-01-28 16:57:46.763871,98.0000000000,-78.6987669000,35.7278312000,24.9980000000,0.0168445017,-0.0118660154,0.0310387108,0.7100000000,-3.2100000000,0.0000000000,12.5870000000,6.0000000000,10.0000000000,30.1764326604,1.7621299565,0.0330745468
2026-01-28 16:57:47.842575,99.0000000000,-78.6987961000,35.7278366000,25.0000000000,0.0381462723,-0.0097299004,0.1428940743,0.2900000000,-1.4000000000,0.0000000000,12.5870000000,6.0000000000,10.0000000000,31.2509907184,1.7186801125,0.0152330930
2026-01-28 16:57:48.846943,100.0000000000,-78.6988037000,35.7278379000,25.0020000000,0.0202425197,-0.0118745463,0.0799096078,0.0000000000,-0.0900000000,0.0000000000,12.5870000000,6.0000000000,10.0000000000,7.5934661679,0.7087438669,0.7505046505
2026-01-28 16:57:49.854986,101.0000000000,-78.6988025000,35.7278378000,25.0000000000,0.0040247450,-0.0121148201,0.0134886298,-0.0600000000,0.2200000000,0.0000000000,12.5870000000,6.0000000000,10.0000000000,0.2116174586,1.3635060673,0.8107328978
2026-01-28 16:57:50.856908,102.0000000000,-78.6988024000,35.7278378000,24.9970000000,-0.0687162951,-0.0025820294,-0.2847232819,0.1900000000,-0.8600000000,0.0000000000,12.5870000000,6.0000000000,10.0000000000,0.2007986418,1.7833288322,0.6955702796
2026-01-28 16:57:52.742773,103.0000000000,-78.6988655000,35.7278501000,25.0040000000,-0.0446412154,-0.0094067240,-0.2270821929,1.0900000000,-4.5100000000,0.0000000000,12.5870000000,6.0000000000,10.0000000000,2.0749958397,1.7750157298,0.6526214116
2026-01-28 16:57:53.744229,104.0000000000,-78.6989177000,35.7278603000,24.9950000000,-0.0368801616,-0.0108941542,-0.2146836817,1.1400000000,-4.7700000000,0.0000000000,12.5870000000,6.0000000000,10.0000000000,3.0702560035,1.7706011999,0.6298141545
2026-01-28 16:57:54.749830,105.0000000000,-78.6989723000,35.7278708000,24.9920000000,-0.0339033864,-0.0116875684,-0.2070210725,1.1500000000,-4.8900000000,0.0000000000,12.5870000000,6.0000000000,10.0000000000,4.0696351645,1.7661683999,0.6069125070
2026-01-28 16:57:55.751437,106.0000000000,-78.6990271000,35.7278813000,24.9940000000,-0.0343258679,-0.0115481652,-0.2067971230,1.1400000000,-4.9100000000,0.0000000000,12.5870000000,6.0000000000,10.0000000000,5.0650454338,1.7617532042,0.5841018101
2026-01-28 16:57:56.757047,107.0000000000,-78.6990818000,35.7278918000,24.9970000000,-0.0336133428,-0.0113097727,-0.2021008432,1.1300000000,-4.9100000000,0.0000000000,12.5870000000,6.0000000000,10.0000000000,6.0644337539,1.7573203636,0.5611999527
2026-01-28 16:57:57.762565,108.0000000000,-78.6991365000,35.7279022000,24.9980000000,-0.0336664692,-0.0115745338,-0.1995870620,1.1200000000,-4.8700000000,0.0000000000,12.5870000000,6.0000000000,10.0000000000,7.0637307385,1.7528879282,0.5383001883
2026-01-28 16:57:58.768431,109.0000000000,-78.6991907000,35.7279126000,24.9990000000,-0.0338866003,-0.0118899029,-0.1990808547,1.1200000000,-4.8500000000,0.0000000000,12.5870000000,6.0000000000,10.0000000000,8.0633734747,1.7484539591,0.5153925008
2026-01-28 16:57:59.771004,110.0000000000,-78.6992447000,35.7279230000,25.0000000000,-0.0343286581,-0.0115261609,-0.2004109323,1.1200000000,-4.8300000000,0.0000000000,12.5870000000,6.0000000000,10.0000000000,9.0597434017,1.7440345068,0.4925598125
2026-01-28 16:58:00.772347,111.0000000000,-78.6992984000,35.7279333000,25.0010000000,-0.0344793908,-0.0117668575,-0.2015753388,1.1300000000,-4.8500000000,0.0000000000,12.5870000000,6.0000000000,10.0000000000,10.0548911135,1.7396204756,0.4697551323
2026-01-28 16:58:01.773504,112.0000000000,-78.6993521000,35.7279436000,25.0010000000,-0.0351384729,-0.0116137741,-0.2034043223,1.1200000000,-4.8400000000,0.0000000000,12.5870000000,6.0000000000,10.0000000000,11.0498541192,1.7352072638,0.4469546849
2026-01-28 16:58:02.780674,113.0000000000,-78.6994058000,35.7279539000,25.0010000000,-0.0352674536,-0.0111275716,-0.2041223645,1.1300000000,-4.8700000000,0.0000000000,12.5870000000,6.0000000000,10.0000000000,12.0507928512,1.7307675462,0.4240172984
2026-01-28 16:58:03.785319,114.0000000000,-78.6994599000,35.7279643000,25.0010000000,-0.0346187018,-0.0117433425,-0.2011117190,1.1300000000,-4.8600000000,0.0000000000,12.5870000000,6.0000000000,10.0000000000,13.0492220224,1.7263389600,0.4011374207
2026-01-28 16:58:05.745861,115.0000000000,-78.6995679000,35.7279850000,25.0010000000,-0.0340699442,-0.0110010626,-0.2002944648,1.1200000000,-4.8300000000,0.0000000000,12.5870000000,6.0000000000,10.0000000000,14.9976344435,1.7176966721,0.3564878461
2026-01-28 16:58:06.750903,116.0000000000,-78.6996213000,35.7279953000,25.0010000000,-0.0357007720,-0.0100805303,-0.2042425424,1.1300000000,-4.8500000000,0.0000000000,12.5870000000,6.0000000000,10.0000000000,15.9964582141,1.7132663356,0.3335989258
2026-01-28 16:58:07.751977,117.0000000000,-78.6996754000,35.7280057000,25.0010000000,-0.0346339494,-0.0126243792,-0.2001525015,1.1300000000,-4.8500000000,0.0000000000,12.5870000000,6.0000000000,10.0000000000,16.9913385346,1.7088534905,0.3108003731
2026-01-28 16:58:08.758568,118.0000000000,-78.6997292000,35.7280160000,25.0010000000,-0.0348074436,-0.0129215699,-0.2016749084,1.1300000000,-4.8500000000,0.0000000000,12.5870000000,6.0000000000,10.0000000000,17.9917017773,1.7044163255,0.2878761745
2026-01-28 16:58:09.764667,119.0000000000,-78.6997834000,35.7280264000,25.0010000000,-0.0337826274,-0.0113741150,-0.1972707808,1.1300000000,-4.8400000000,0.0000000000,12.5870000000,6.0000000000,10.0000000000,18.9915760322,1.6999813296,0.2649631815
2026-01-28 16:58:10.770923,120.0000000000,-78.6998368000,35.7280367000,25.0010000000,-0.0357796475,-0.0092976028,-0.2045330554,1.1200000000,-4.8400000000,0.0000000000,12.5870000000,6.0000000000,10.0000000000,19.9916064985,1.6955456407,0.2420466088
2026-01-28 16:58:11.772349,121.0000000000,-78.6998908000,35.7280470000,25.0010000000,-0.0348207392,-0.0120733930,-0.1999990493,1.1300000000,-4.8500000000,0.0000000000,12.5870000000,6.0000000000,10.0000000000,20.9868366412,1.6911312440,0.2192400396
2026-01-28 16:58:12.773691,122.0000000000,-78.6999430000,35.7280571000,25.0010000000,-0.0021546911,-0.0160055961,-0.0676971897,1.0100000000,-4.3600000000,0.0000000000,12.5870000000,6.0000000000,10.0000000000,21.9819833354,1.6867172173,0.1964353828
2026-01-28 16:58:13.780326,123.0000000000,-78.6999853000,35.7280651000,24.9980000000,0.0187030770,-0.0161202159,0.0390336141,0.7000000000,-3.1100000000,0.0000000000,12.5870000000,6.0000000000,10.0000000000,22.9823903376,1.6822798583,0.1735101814
2026-01-28 16:58:15.747677,124.0000000000,-78.7000196000,35.7280716000,25.0020000000,0.0198783800,-0.0163079258,0.0729350299,0.0000000000,-0.1200000000,0.0000000000,12.5870000000,6.0000000000,10.0000000000,24.9375694648,1.6736075563,0.1287055417
2026-01-28 16:58:16.753415,125.0000000000,-78.7000185000,35.7280715000,25.0000000000,0.0037119093,-0.0171755645,0.0110094650,-0.0600000000,0.2200000000,0.0000000000,12.5870000000,6.0000000000,10.0000000000,25.9370849929,1.6691741515,0.1058007692
2026-01-28 16:58:17.754622,126.0000000000,-78.7000160000,35.7280711000,24.9980000000,-0.0000171850,-0.0170819089,-0.0060703200,-0.0500000000,0.1700000000,0.0000000000,12.5870000000,6.0000000000,10.0000000000,26.9320976098,1.6647607195,0.0829991849
2026-01-28 16:58:18.760242,127.0000000000,-78.7000189000,35.7280716000,24.9970000000,-0.0745280758,-0.0060207872,-0.2973703742,0.3100000000,-1.3300000000,0.0000000000,12.5870000000,6.0000000000,10.0000000000,27.9314958520,1.6603278349,0.0600971001
2026-01-28 16:58:19.763453,128.0000000000,-78.7000468000,35.7280770000,25.0010000000,-0.0824738890,-0.0031218219,-0.3415417075,0.9100000000,-3.7400000000,0.0000000000,12.5870000000,6.0000000000,10.0000000000,28.9285000384,1.6559055693,0.0372498772
2026-01-28 16:58:20.765841,129.0000000000,-78.7000945000,35.7280864000,25.0000000000,-0.0440073460,-0.0144045353,-0.2188536972,1.1400000000,-4.5900000000,0.0000000000,12.5870000000,6.0000000000,10.0000000000,29.9246862770,1.6514869317,0.0144213983
2026-01-28 16:58:21.768104,130.0000000000,-78.7001473000,35.7280970000,24.9920000000,-0.0390789434,-0.0150297461,-0.2158884555,1.1800000000,-4.8200000000,0.0000000000,12.5870000000,6.0000000000,10.0000000000,28.2353388492,1.6117969488,0.0030629617
2026-01-28 16:58:22.773472,131.0000000000,-78.7002019000,35.7281078000,24.9920000000,-0.0368205123,-0.0156903155,-0.2105709463,1.1800000000,-4.9200000000,0.0000000000,12.5870000000,6.0000000000,10.0000000000,23.4096092065,1.5308574858,0.0050399224
2026-01-28 16:58:23.779718,132.0000000000,-78.7002565000,35.7281185000,24.9940000000,-0.0070893425,-0.0206433199,-0.0962636247,1.1000000000,-4.6600000000,0.0000000000,12.5870000000,6.0000000000,10.0000000000,18.5796660409,1.4498473517,0.0070186093
2026-01-28 16:58:24.785412,133.0000000000,-78.7003026000,35.7281275000,24.9910000000,0.0167274028,-0.0212395508,0.0175912734,0.7900000000,-3.4600000000,0.0000000000,12.5870000000,6.0000000000,10.0000000000,13.7523709190,1.3688816317,0.0089962114
2026-01-28 16:58:25.788683,134.0000000000,-78.7003332000,35.7281333000,24.9950000000,0.0393999666,-0.0200815909,0.1316002011,0.4000000000,-1.8800000000,0.0000000000,12.5870000000,6.0000000000,10.0000000000,8.9367075286,1.2881110048,0.0109690482
2026-01-28 16:58:26.797394,135.0000000000,-78.7003455000,35.7281355000,25.0010000000,0.0261011440,-0.0213738009,0.0958211869,0.0200000000,-0.2400000000,0.0000000000,12.5870000000,6.0000000000,10.0000000000,5.4386795793,1.2199199348,0.0123787850
2026-01-28 16:58:27.801848,136.0000000000,-78.7003451000,35.7281356000,24.9990000000,0.0063815606,-0.0223233849,0.0201945100,-0.0600000000,0.2000000000,0.0000000000,12.5870000000,6.0000000000,10.0000000000,6.2172157620,1.1933027323,0.0119627281
2026-01-28 16:58:28.808023,137.0000000000,-78.7003422000,35.7281357000,24.9960000000,-0.2044783831,-0.0280186068,0.0575098507,0.4600000000,0.3200000000,0.0000000000,12.5870000000,6.0000000000,10.0000000000,6.9970857338,1.1666399291,0.0115459584
2026-01-28 16:58:29.815275,138.0000000000,-78.7003350000,35.7281509000,24.9970000000,-0.3246102929,-0.0383626148,0.1009868011,2.9400000000,0.9600000000,0.0000000000,12.5870000000,6.0000000000,10.0000000000,7.7777904647,1.1399485866,0.0111287426
2026-01-28 16:58:30.822121,139.0000000000,-78.7003214000,35.7281857000,25.0030000000,-0.2293324471,-0.0301752891,0.0625303686,4.4200000000,1.3800000000,0.0000000000,12.5870000000,6.0000000000,10.0000000000,8.5581804992,1.1132680031,0.0107116950
2026-01-28 16:58:31.829207,140.0000000000,-78.7003059000,35.7282270000,24.9960000000,-0.2155168504,-0.0286885798,0.0541171692,4.7200000000,1.4400000000,0.0000000000,12.5870000000,6.0000000000,10.0000000000,9.3387566530,1.0865810564,0.0102945480
2026-01-28 16:58:32.831899,141.0000000000,-78.7002898000,35.7282707000,24.9930000000,-0.2073771656,-0.0289343987,0.0513796434,4.8600000000,1.4600000000,0.0000000000,12.5870000000,6.0000000000,10.0000000000,10.1159269023,1.0600105535,0.0098792210
2026-01-28 16:58:33.836249,142.0000000000,-78.7002739000,35.7283144000,24.9940000000,-0.1097674221,-0.0248601418,0.0199315194,4.6100000000,1.3700000000,0.0000000000,12.5870000000,6.0000000000,10.0000000000,10.8943825259,1.0333961052,0.0094632072
2026-01-28 16:58:35.747128,143.0000000000,-78.7002524000,35.7283742000,24.9930000000,0.1196696833,-0.0276058894,-0.0404608101,2.0300000000,0.5900000000,0.0000000000,12.5870000000,6.0000000000,10.0000000000,12.3754739550,0.9827593956,0.0086716983
2026-01-28 16:58:36.753599,144.0000000000,-78.7002486000,35.7283850000,24.9980000000,0.1014209315,-0.0273278877,-0.0303459931,0.4400000000,0.1200000000,0.0000000000,12.5870000000,6.0000000000,10.0000000000,13.1555733020,0.9560887504,0.0082548061
2026-01-28 16:58:37.759956,145.0000000000,-78.7002483000,35.7283856000,24.9980000000,0.0240748730,-0.0255637746,-0.0061716796,-0.1600000000,-0.0300000000,0.0000000000,12.5870000000,6.0000000000,10.0000000000,13.9355843515,0.9294211240,0.0078379610
2026-01-28 16:58:38.761971,146.0000000000,-78.7002488000,35.7283837000,24.9950000000,0.0164107084,-0.0244962983,0.0892805010,-0.1900000000,0.0100000000,0.0000000000,12.5870000000,6.0000000000,10.0000000000,14.7122299744,0.9028685573,0.0074229145
2026-01-28 16:58:39.763498,147.0000000000,-78.7002381000,35.7283800000,24.9950000000,0.0773195550,-0.0118510248,0.3188045621,-0.6300000000,2.2800000000,-0.0100000000,12.5870000000,6.0000000000,10.0000000000,15.4884974061,0.8763289206,0.0070080700
2026-01-28 16:58:40.769870,148.0000000000,-78.7002008000,35.7283721000,25.0040000000,0.0598779730,-0.0168168470,0.2582095563,-1.1000000000,4.3300000000,-0.0100000000,12.5870000000,6.0000000000,10.0000000000,16.2685201624,0.8496608940,0.0065912187
2026-01-28 16:58:41.775119,149.0000000000,-78.7001504000,35.7283620000,25.0030000000,0.0463199578,-0.0197994113,0.2210727334,-1.1900000000,4.7500000000,0.0000000000,12.5870000000,6.0000000000,10.0000000000,17.0476724438,0.8230226278,0.0061748325
2026-01-28 16:58:42.776625,150.0000000000,-78.7000966000,35.7283512000,24.9980000000,0.0434311740,-0.0206658021,0.2172678560,-1.2100000000,4.9400000000,0.0000000000,12.5870000000,6.0000000000,10.0000000000,17.8239234065,0.7964835541,0.0057599969
2026-01-28 16:58:43.778244,151.0000000000,-78.7000417000,35.7283404000,24.9960000000,0.0415516160,-0.0211257283,0.2116166204,-1.2100000000,5.0000000000,0.0000000000,12.5870000000,6.0000000000,10.0000000000,18.6002622699,0.7699414752,0.0053451143
2026-01-28 16:58:44.784494,152.0000000000,-78.6999863000,35.7283297000,24.9940000000,0.0397190712,-0.0208434630,0.2018797845,-1.1900000000,4.9800000000,0.0000000000,12.5870000000,6.0000000000,10.0000000000,19.3801903792,0.7432766844,0.0049283135
2026-01-28 16:58:45.791270,153.0000000000,-78.6999316000,35.7283190000,24.9940000000,0.0397302434,-0.0217288211,0.2017320246,-1.1700000000,4.9200000000,0.0000000000,12.5870000000,6.0000000000,10.0000000000,20.1605260462,0.7165979597,0.0045112950
2026-01-28 16:58:46.801299,154.0000000000,-78.6998774000,35.7283085000,24.9940000000,0.0399106741,-0.0214132909,0.2025137991,-1.1700000000,4.9000000000,0.0000000000,12.5870000000,6.0000000000,10.0000000000,20.9433832531,0.6898330266,0.0040929289
2026-01-28 16:58:47.804101,155.0000000000,-78.6998236000,35.7282980000,24.9920000000,0.0419051200,-0.0219695065,0.2054888159,-1.1600000000,4.8900000000,0.0000000000,12.5870000000,6.0000000000,10.0000000000,21.7206390221,0.6632595999,0.0036775563
2026-01-28 16:58:49.746863,156.0000000000,-78.6997157000,35.7282771000,24.9920000000,0.0414356515,-0.0196860470,0.2031046450,-1.1700000000,4.8900000000,0.0000000000,12.5870000000,6.0000000000,10.0000000000,23.2264424557,0.6117780170,0.0028728411
2026-01-28 16:58:50.752645,157.0000000000,-78.6996618000,35.7282666000,24.9920000000,0.0418765917,-0.0210498627,0.2022726089,-1.1700000000,4.8900000000,0.0000000000,12.5870000000,6.0000000000,10.0000000000,0.1934851916,0.8473517974,1.1551516191
2026-01-28 16:58:51.758461,158.0000000000,-78.6996079000,35.7282561000,24.9920000000,0.0413403101,-0.0214504749,0.2025142908,-1.1700000000,4.8700000000,0.0000000000,12.5870000000,6.0000000000,10.0000000000,0.7599698416,1.2716300576,0.6218314208
2026-01-28 16:58:52.763953,159.0000000000,-78.6995544000,35.7282457000,24.9920000000,0.0421722531,-0.0210484564,0.2054205388,-1.1700000000,4.8900000000,0.0000000000,12.5870000000,6.0000000000,10.0000000000,1.6384113280,1.3855440477,0.1349754964
2026-01-28 16:58:53.770273,160.0000000000,-78.6995004000,35.7282353000,24.9920000000,0.0417134278,-0.0212436710,0.2033204883,-1.1700000000,4.8900000000,0.0000000000,12.5870000000,6.0000000000,10.0000000000,2.4269407058,1.4611279953,0.1144087227
2026-01-28 16:58:54.777141,161.0000000000,-78.6994466000,35.7282248000,24.9920000000,0.0416450500,-0.0212738253,0.2029576004,-1.1700000000,4.8900000000,0.0000000000,12.5870000000,6.0000000000,10.0000000000,3.2158993585,1.5367530909,0.0938307525
2026-01-28 16:58:55.778755,162.0000000000,-78.6993925000,35.7282143000,24.9930000000,0.0410375781,-0.0214555115,0.1996873319,-1.1700000000,4.8700000000,0.0000000000,12.5870000000,6.0000000000,10.0000000000,4.0007411850,1.6119835708,0.0733601592
2026-01-28 16:58:56.780316,163.0000000000,-78.6993389000,35.7282039000,24.9930000000,0.0417435132,-0.0222834516,0.2028481066,-1.1700000000,4.8700000000,0.0000000000,12.5870000000,6.0000000000,10.0000000000,4.7855412877,1.6872100514,0.0528906541
2026-01-28 16:58:57.781279,164.0000000000,-78.6992851000,35.7281934000,24.9930000000,0.0422731079,-0.0220695436,0.2030616403,-1.1700000000,4.8700000000,0.0000000000,12.5870000000,6.0000000000,10.0000000000,5.5698729992,1.7623916346,0.0324333659
2026-01-28 16:58:58.782679,165.0000000000,-78.6992316000,35.7281830000,24.9940000000,0.0422640070,-0.0203878228,0.2063759118,-1.1700000000,4.8900000000,0.0000000000,12.5870000000,6.0000000000,10.0000000000,6.3545471277,1.8376060400,0.0119671465
2026-01-28 16:58:59.784709,166.0000000000,-78.6991774000,35.7281725000,24.9950000000,0.0406736620,-0.0204759538,0.1993309408,-1.1700000000,4.8900000000,0.0000000000,12.5870000000,6.0000000000,10.0000000000,1.2558087935,1.9751043461,0.1930952182
2026-01-28 16:59:00.786590,167.0000000000,-78.6991236000,35.7281621000,24.9950000000,0.0421685092,-0.0221028905,0.2029004842,-1.1700000000,4.8700000000,0.0000000000,12.5870000000,6.0000000000,10.0000000000,1.8807726948,1.9542991898,0.1956608423
2026-01-28 16:59:01.788297,168.0000000000,-78.6990696000,35.7281516000,24.9950000000,0.0414368138,-0.0216135252,0.1988225877,-1.1700000000,4.8700000000,0.0000000000,12.5870000000,6.0000000000,10.0000000000,2.8435980097,1.9246596556,0.1875910619
2026-01-28 16:59:02.789647,169.0000000000,-78.6990161000,35.7281412000,24.9950000000,0.0422769152,-0.0195420776,0.2040550113,-1.1700000000,4.8700000000,0.0000000000,12.5870000000,6.0000000000,10.0000000000,3.8060803124,1.8950306808,0.1795241565
2026-01-28 16:59:03.791451,170.0000000000,-78.6989623000,35.7281307000,24.9950000000,0.0416155383,-0.0208437853,0.2024611831,-1.1700000000,4.8800000000,0.0000000000,12.5870000000,6.0000000000,10.0000000000,4.7689986391,1.8653882834,0.1714535966
2026-01-28 16:59:04.813222,171.0000000000,-78.6989033000,35.7281192000,24.9950000000,0.0424683392,-0.0210591052,0.2047659755,-1.1700000000,4.8900000000,0.0000000000,12.5870000000,6.0000000000,10.0000000000,5.7511091611,1.8351550750,0.1632221802
2026-01-28 16:59:05.815309,172.0000000000,-78.6988491000,35.7281087000,24.9950000000,0.0411403477,-0.0206698310,0.1986499578,-1.1700000000,4.8900000000,0.0000000000,12.5870000000,6.0000000000,10.0000000000,6.7142998799,1.8055042923,0.1551493373
2026-01-28 16:59:06.817790,173.0000000000,-78.6987954000,35.7280983000,24.9950000000,0.0421486869,-0.0223459005,0.2023068070,-1.1700000000,4.8700000000,0.0000000000,12.5870000000,6.0000000000,10.0000000000,7.6778690440,1.7758418596,0.1470733225
2026-01-28 16:59:07.818788,174.0000000000,-78.6987415000,35.7280878000,24.9950000000,0.0415928811,-0.0229931418,0.2005067468,-1.1700000000,4.8800000000,0.0000000000,12.5870000000,6.0000000000,10.0000000000,8.6400130097,1.7462233000,0.1390092528
2026-01-28 16:59:08.821096,175.0000000000,-78.6986880000,35.7280774000,24.9950000000,0.0428294167,-0.0206799079,0.2044963390,-1.1700000000,4.8800000000,0.0000000000,12.5870000000,6.0000000000,10.0000000000,9.6034158350,1.7165659879,0.1309346321
2026-01-28 16:59:09.826242,176.0000000000,-78.6986339000,35.7280669000,24.9950000000,0.0417541936,-0.0204560552,0.2014275342,-1.1700000000,4.8900000000,0.0000000000,12.5870000000,6.0000000000,10.0000000000,10.5695467635,1.6868246940,0.1228371463
2026-01-28 16:59:10.832176,177.0000000000,-78.6985801000,35.7280565000,24.9950000000,0.0422723964,-0.0218067337,0.2016291618,-1.1700000000,4.8700000000,0.0000000000,12.5870000000,6.0000000000,10.0000000000,11.5364350748,1.6570600849,0.1147333126
2026-01-28 16:59:11.834487,178.0000000000,-78.6985265000,35.7280460000,24.9950000000,0.0234079380,-0.0250199605,0.1322055310,-1.1300000000,4.7200000000,0.0000000000,12.5870000000,6.0000000000,10.0000000000,12.4998408528,1.6274026818,0.1066586672
2026-01-28 16:59:12.841473,179.0000000000,-78.6984800000,35.7280370000,24.9920000000,-0.0050876774,-0.0257299393,0.0124297338,-0.8600000000,3.6300000000,0.0000000000,12.5870000000,6.0000000000,10.0000000000,13.4677402379,1.5976069479,0.0985463593
2026-01-28 16:59:13.844027,180.0000000000,-78.6984477000,35.7280307000,24.9910000000,-0.0293610822,-0.0256870650,-0.0947739854,-0.4900000000,2.1600000000,0.0000000000,12.5870000000,6.0000000000,10.0000000000,14.4313795300,1.5679423564,0.0904697567
2026-01-28 16:59:14.849354,181.0000000000,-78.6984334000,35.7280279000,24.9940000000,-0.0310143996,-0.0254099332,-0.1132905483,-0.1000000000,0.5300000000,0.0000000000,12.5870000000,6.0000000000,10.0000000000,15.3976844253,1.5381957071,0.0823708128
2026-01-28 16:59:16.689700,182.0000000000,-78.6984344000,35.7280280000,24.9900000000,0.0059586661,-0.0269072000,0.0208406653,0.0300000000,-0.1000000000,0.0000000000,12.5870000000,6.0000000000,10.0000000000,17.1665967026,1.4837416592,0.0675449318
2026-01-28 16:59:17.695956,183.0000000000,-78.6984251000,35.7280265000,24.9900000000,0.0841068029,-0.0142473318,0.3040935993,-0.5300000000,2.1700000000,-0.0100000000,12.5870000000,6.0000000000,10.0000000000,18.1337943153,1.4539675286,0.0594385057
2026-01-28 16:59:18.697726,184.0000000000,-78.6983894000,35.7280197000,24.9980000000,0.0806357786,-0.0157510117,0.2977673411,-1.0800000000,4.2500000000,-0.0100000000,12.5870000000,6.0000000000,10.0000000000,19.0966801617,1.4243261311,0.0513682181
2026-01-28 16:59:19.704894,185.0000000000,-78.6983396000,35.7280097000,25.0010000000,0.0523365512,-0.0224584453,0.2218514383,-1.2200000000,4.7200000000,0.0000000000,12.5870000000,6.0000000000,10.0000000000,20.0647544978,1.3945250115,0.0432544439
2026-01-28 16:59:20.743852,186.0000000000,-78.6982801000,35.7279977000,24.9960000000,0.0412250012,-0.0246088337,0.2120626718,-1.2300000000,4.9000000000,0.0000000000,12.5870000000,6.0000000000,10.0000000000,21.0633849681,1.3637832545,0.0348845678
2026-01-28 16:59:21.844309,187.0000000000,-78.6982197000,35.7279856000,24.9950000000,0.0395238735,-0.0248826742,0.2065138519,-1.2100000000,4.9500000000,0.0000000000,12.5870000000,6.0000000000,10.0000000000,22.1211272126,1.3312218055,0.0260192551
2026-01-28 16:59:23.583682,188.0000000000,-78.6981267000,35.7279674000,24.9980000000,0.0400101021,-0.0248970687,0.2018225640,-1.1700000000,4.9000000000,0.0000000000,12.5870000000,6.0000000000,10.0000000000,23.7929857471,1.2797554519,0.0120068160
2026-01-28 16:59:24.589226,189.0000000000,-78.6980726000,35.7279568000,24.9980000000,0.0407529697,-0.0254272893,0.2011902332,-1.1700000000,4.8900000000,0.0000000000,12.5870000000,6.0000000000,10.0000000000,24.7594990579,1.2500023868,0.0039061252
2026-01-28 16:59:25.591261,190.0000000000,-78.6980189000,35.7279462000,24.9960000000,0.0420568958,-0.0246851239,0.2043849230,-1.1700000000,4.8900000000,0.0000000000,12.5870000000,6.0000000000,10.0000000000,0.1469395453,1.2765973596,1.3662601824
2026-01-28 16:59:26.598645,191.0000000000,-78.6979648000,35.7279356000,24.9950000000,0.0410186835,-0.0243888237,0.1993807107,-1.1800000000,4.8900000000,0.0000000000,12.5870000000,6.0000000000,10.0000000000,0.6674915467,1.7544640093,1.4213271504
2026-01-28 16:59:27.600305,192.0000000000,-78.6979110000,35.7279251000,24.9960000000,0.0419239961,-0.0254206210,0.2030315399,-1.1800000000,4.8800000000,0.0000000000,12.5870000000,6.0000000000,10.0000000000,1.6674924968,1.7759903774,1.4040792655
2026-01-28 16:59:28.607148,193.0000000000,-78.6978518000,35.7279134000,24.9960000000,0.0409255140,-0.0257612113,0.2012322545,-1.1800000000,4.8800000000,0.0000000000,12.5870000000,6.0000000000,10.0000000000,2.6726680944,1.7976281367,1.3867421290
2026-01-28 16:59:29.608826,194.0000000000,-78.6978036000,35.7279040000,24.9980000000,0.0423130579,-0.0242546871,0.2053274363,-1.1800000000,4.8800000000,0.0000000000,12.5870000000,6.0000000000,10.0000000000,3.6726871904,1.8191548954,1.3694939312
2026-01-28 16:59:30.748756,195.0000000000,-78.6977388000,35.7278912000,24.9970000000,0.0412964746,-0.0242036656,0.1994661689,-1.1900000000,4.8900000000,0.0000000000,12.5870000000,6.0000000000,10.0000000000,4.8107290892,1.8436527810,1.3498651342
2026-01-28 16:59:31.749675,196.0000000000,-78.6976850000,35.7278806000,24.9960000000,0.0415565707,-0.0255148020,0.2018838972,-1.1800000000,4.8700000000,0.0000000000,12.5870000000,6.0000000000,10.0000000000,5.8099904023,1.8651632274,1.3326300065
2026-01-28 16:59:32.750589,197.0000000000,-78.6976312000,35.7278700000,24.9970000000,0.0415086932,-0.0255628526,0.2007622570,-1.1900000000,4.8800000000,0.0000000000,12.5870000000,6.0000000000,10.0000000000,6.8092466039,1.8866735637,1.3153949670
2026-01-28 16:59:33.752314,198.0000000000,-78.6975776000,35.7278595000,24.9980000000,0.0422374383,-0.0239397977,0.2042430937,-1.1800000000,4.8700000000,0.0000000000,12.5870000000,6.0000000000,10.0000000000,7.8093127259,1.9082013347,1.2981459581
2026-01-28 16:59:34.754328,199.0000000000,-78.6975237000,35.7278489000,24.9970000000,0.0418078788,-0.0238836780,0.2003103644,-1.1900000000,4.8900000000,0.0000000000,12.5870000000,6.0000000000,10.0000000000,8.8096671376,1.9297353116,1.2808919767
2026-01-28 16:59:35.760604,200.0000000000,-78.6974699000,35.7278383000,24.9960000000,0.0426395014,-0.0250282027,0.2026859820,-1.1800000000,4.8700000000,0.0000000000,12.5870000000,6.0000000000,10.0000000000,9.8142763787,1.9513608793,1.2635646087
2026-01-28 16:59:36.766486,201.0000000000,-78.6974162000,35.7278277000,24.9960000000,0.0420411043,-0.0249285847,0.2008047849,-1.1800000000,4.8800000000,0.0000000000,12.5870000000,6.0000000000,10.0000000000,10.8184925440,1.9729779856,1.2462440204
2026-01-28 16:59:37.773606,202.0000000000,-78.6973624000,35.7278171000,24.9980000000,0.0420826003,-0.0248211138,0.2019680440,-1.1800000000,4.8700000000,0.0000000000,12.5870000000,6.0000000000,10.0000000000,11.8239444193,1.9946216922,1.2289021187
2026-01-28 16:59:38.775160,203.0000000000,-78.6973086000,35.7278065000,24.9980000000,0.0419655591,-0.0253898874,0.2014290541,-1.1800000000,4.8700000000,0.0000000000,12.5870000000,6.0000000000,10.0000000000,12.8238398165,2.0161457881,1.2116560544
2026-01-28 16:59:39.777028,204.0000000000,-78.6972550000,35.7277960000,24.9970000000,0.0421470851,-0.0254467651,0.2050324529,-1.1800000000,4.8700000000,0.0000000000,12.5870000000,6.0000000000,10.0000000000,13.8240485499,2.0376766290,1.1944045857
2026-01-28 16:59:40.783055,205.0000000000,-78.6972013000,35.7277854000,24.9960000000,0.0428112783,-0.0234907344,0.2035807371,-1.1900000000,4.8900000000,0.0000000000,12.5870000000,6.0000000000,10.0000000000,14.8284093711,2.0592968492,1.1770815024
2026-01-28 16:59:41.784143,206.0000000000,-78.6971472000,35.7277748000,24.9960000000,0.0415171310,-0.0244280826,0.2003922760,-1.1800000000,4.8700000000,0.0000000000,12.5870000000,6.0000000000,10.0000000000,15.8278393644,2.0808109267,1.1598434653
2026-01-28 16:59:42.791674,207.0000000000,-78.6970935000,35.7277642000,24.9980000000,0.0420623012,-0.0254047271,0.2007166147,-1.1800000000,4.8700000000,0.0000000000,12.5870000000,6.0000000000,10.0000000000,16.8337016948,2.1024634689,1.1424944841
2026-01-28 16:59:44.270336,208.0000000000,-78.6970129000,35.7277483000,24.9980000000,0.0419233777,-0.0241200067,0.2029406726,-1.1800000000,4.8600000000,0.0000000000,12.5870000000,6.0000000000,10.0000000000,18.3099146159,2.1342409414,1.1170329578
2026-01-28 16:59:45.747551,209.0000000000,-78.6969322000,35.7277325000,24.9960000000,0.0421855524,-0.0236083753,0.2020755708,-1.1800000000,4.8600000000,0.0000000000,12.5870000000,6.0000000000,10.0000000000,19.7846830214,2.1659873188,1.0915963463
2026-01-28 16:59:46.749505,210.0000000000,-78.6968788000,35.7277220000,24.9960000000,0.0430926941,-0.0249135289,0.2050618231,-1.1900000000,4.8800000000,0.0000000000,12.5870000000,6.0000000000,10.0000000000,20.7849776284,2.1875200083,1.0743433965
2026-01-28 16:59:47.751131,211.0000000000,-78.6968247000,35.7277113000,24.9980000000,0.0414974280,-0.0244955681,0.2008903623,-1.1900000000,4.8800000000,0.0000000000,12.5870000000,6.0000000000,10.0000000000,21.7849445868,2.2090456446,1.0570960980
2026-01-28 16:59:48.756662,212.0000000000,-78.6967711000,35.7277008000,24.9980000000,0.0429440998,-0.0255929064,0.2034644932,-1.1800000000,4.8800000000,0.0000000000,12.5870000000,6.0000000000,10.0000000000,22.7888103574,2.2306552082,1.0397815532
2026-01-28 16:59:49.762006,213.0000000000,-78.6967176000,35.7276902000,24.9980000000,0.0158908479,-0.0288682580,0.1042745486,-1.1300000000,4.6500000000,0.0000000000,12.5870000000,6.0000000000,10.0000000000,23.7924893019,2.2522607501,1.0224702308
2026-01-28 16:59:50.766904,214.0000000000,-78.6966721000,35.7276813000,24.9930000000,-0.0098735914,-0.0297375564,-0.0053970199,-0.8500000000,3.5300000000,0.0000000000,12.5870000000,6.0000000000,10.0000000000,24.7957230329,2.2738567081,1.0051665873
2026-01-28 16:59:51.774101,215.0000000000,-78.6966408000,35.7276752000,24.9920000000,-0.0357782468,-0.0285082869,-0.1213120818,-0.4700000000,2.0100000000,0.0000000000,12.5870000000,6.0000000000,10.0000000000,25.8012518366,2.2955020707,0.9878233588
2026-01-28 16:59:52.779729,216.0000000000,-78.6966280000,35.7276727000,24.9960000000,-0.0264255740,-0.0296487920,-0.0981966332,-0.0800000000,0.4200000000,0.0000000000,12.5870000000,6.0000000000,10.0000000000,26.8052142149,2.3171137139,0.9705071477
2026-01-28 16:59:53.785456,217.0000000000,-78.6966277000,35.7276725000,24.9930000000,-0.0053524114,-0.0306527298,-0.0190809797,0.0400000000,-0.1500000000,0.0000000000,12.5870000000,6.0000000000,10.0000000000,27.8092757566,2.3387274917,0.9531892263
2026-01-28 16:59:54.791121,218.0000000000,-78.6966304000,35.7276728000,24.9900000000,0.2013841718,-0.0363526270,-0.0597978160,-0.2500000000,-0.2400000000,0.0000000000,12.5870000000,6.0000000000,10.0000000000,28.8132749379,2.3603399271,0.9358723805
2026-01-28 16:59:55.801759,219.0000000000,-78.6966373000,35.7276600000,24.9930000000,0.3183657229,-0.0461207330,-0.1079534516,-2.7000000000,-0.9300000000,-0.0100000000,12.5870000000,6.0000000000,10.0000000000,29.8222391943,2.3820592424,0.9184698977
2026-01-28 16:59:56.803647,220.0000000000,-78.6966510000,35.7276275000,25.0040000000,0.2357735783,-0.0387186222,-0.0721489862,-4.3800000000,-1.4500000000,0.0000000000,12.5870000000,6.0000000000,10.0000000000,30.8224678626,2.4035905125,0.9012180852
2026-01-28 16:59:57.805734,221.0000000000,-78.6966678000,35.7275864000,24.9990000000,0.2105682045,-0.0367834643,-0.0576510280,-4.7200000000,-1.5300000000,0.0000000000,12.5870000000,6.0000000000,10.0000000000,31.8228951135,2.4251260572,0.8839628476
2026-01-28 16:59:58.810450,222.0000000000,-78.6966852000,35.7275432000,24.9970000000,0.2065454423,-0.0366956145,-0.0550853573,-4.8400000000,-1.5400000000,0.0000000000,12.5870000000,6.0000000000,10.0000000000,32.8259471300,2.4467181036,0.8666623383
2026-01-28 16:59:59.814943,223.0000000000,-78.6967021000,35.7275008000,24.9970000000,0.0579204857,-0.0324828587,-0.0026166735,-4.3000000000,-1.3500000000,0.0000000000,12.5870000000,6.0000000000,10.0000000000,33.8287765398,2.4683053581,0.8493656686
2026-01-28 17:00:00.817234,224.0000000000,-78.6967162000,35.7274649000,24.9920000000,-0.0421771221,-0.0342087038,0.0266036894,-2.8800000000,-0.8600000000,0.0000000000,12.5870000000,6.0000000000,10.0000000000,34.8294074848,2.4898452877,0.8321069176
2026-01-28 17:00:01.823296,225.0000000000,-78.6967234000,35.7274464000,24.9940000000,-0.1349885762,-0.0381772965,0.0541832186,-1.1900000000,-0.3200000000,0.0000000000,12.5870000000,6.0000000000,10.0000000000,35.8338033200,2.5114662616,0.8147832304
2026-01-28 17:00:02.830854,226.0000000000,-78.6967252000,35.7274417000,24.9960000000,-0.0625036955,-0.0346239731,0.0246326346,-0.1300000000,0.0000000000,0.0000000000,12.5870000000,6.0000000000,10.0000000000,36.8396924858,2.5331193815,0.7974337864
2026-01-28 17:00:03.849317,227.0000000000,-78.6967248000,35.7274429000,24.9930000000,-0.0040931674,-0.0339793824,0.0029817396,0.1600000000,0.0800000000,0.0000000000,12.5870000000,6.0000000000,10.0000000000,37.8564689341,2.5550068648,0.7798965599
2026-01-28 17:00:04.851223,228.0000000000,-78.6967205000,35.7274436000,24.9900000000,0.1290274411,-0.0169963501,0.2768587768,-0.3900000000,1.2800000000,0.0000000000,12.5870000000,6.0000000000,10.0000000000,38.8567154928,2.5765385199,0.7626444388
2026-01-28 17:00:06.747135,229.0000000000,-78.6966532000,35.7274234000,24.9990000000,0.0806402937,-0.0299007446,0.2088190615,-1.7600000000,4.3900000000,0.0000000000,12.5870000000,6.0000000000,10.0000000000,40.7494874104,2.6172829862,0.7299981578
2026-01-28 17:00:07.752472,230.0000000000,-78.6966030000,35.7274073000,24.9940000000,0.0729705393,-0.0313213989,0.2041476071,-1.8500000000,4.6300000000,0.0000000000,12.5870000000,6.0000000000,10.0000000000,41.7531594543,2.6388883796,0.7126869544
2026-01-28 17:00:08.753546,231.0000000000,-78.6965507000,35.7273905000,24.9920000000,0.0675699562,-0.0323440842,0.1971045434,-1.8700000000,4.7400000000,0.0000000000,12.5870000000,6.0000000000,10.0000000000,42.7525753909,2.6604021545,0.6954491597
2026-01-28 17:00:09.756190,232.0000000000,-78.6964980000,35.7273736000,24.9910000000,0.0651185364,-0.0330418870,0.1905374676,-1.8600000000,4.7600000000,0.0000000000,12.5870000000,6.0000000000,10.0000000000,43.7535587752,2.6819496708,0.6781843300
2026-01-28 17:00:10.761897,233.0000000000,-78.6964453000,35.7273568000,24.9910000000,0.0641663149,-0.0331315212,0.1874574125,-1.8400000000,4.7100000000,0.0000000000,12.5870000000,6.0000000000,10.0000000000,44.7576001265,2.7035630139,0.6608667568
2026-01-28 17:00:12.746984,234.0000000000,-78.6963431000,35.7273241000,24.9890000000,0.0118700024,-0.0396223143,0.0617949888,-1.6500000000,4.2300000000,0.0000000000,12.5870000000,6.0000000000,10.0000000000,46.7393993920,2.7462239139,0.6266849438
2026-01-28 17:00:13.748114,235.0000000000,-78.6963028000,35.7273113000,24.9840000000,-0.0227172822,-0.0401297733,-0.0326762795,-1.1700000000,3.0300000000,0.0000000000,12.5870000000,6.0000000000,10.0000000000,47.7388712997,2.7677388936,0.6094461838
2026-01-28 17:00:14.750827,236.0000000000,-78.6962783000,35.7273036000,24.8500000000,-0.0942324102,-0.0313300900,-0.2126987427,-0.4300000000,1.1700000000,0.5100000000,12.5870000000,6.0000000000,10.0000000000,48.7399236895,2.7892878954,0.5921801638
2026-01-28 17:00:15.752682,237.0000000000,-78.6962729000,35.7273019000,23.7830000000,-0.0167577956,-0.0413516872,-0.0418682136,-0.0300000000,0.1100000000,1.5200000000,12.5870000000,6.0000000000,10.0000000000,49.7401193885,2.8108184557,0.5749289200
2026-01-28 17:00:16.757318,238.0000000000,-78.6962736000,35.7273021000,22.1890000000,-0.0005318033,-0.0417006798,-0.0036528914,0.0300000000,-0.0800000000,1.4800000000,12.5870000000,6.0000000000,10.0000000000,50.7430914098,2.8324087801,0.5576297905
2026-01-28 17:00:17.763609,239.0000000000,-78.6962752000,35.7273025000,20.6910000000,0.0041234093,-0.0417294838,0.0066204318,0.0200000000,-0.0600000000,1.4200000000,12.5870000000,6.0000000000,10.0000000000,51.7477159855,2.8540346779,0.5403021579
2026-01-28 17:00:18.765126,240.0000000000,-78.6962762000,35.7273029000,19.2070000000,0.0046223653,-0.0418251790,0.0057159616,0.0000000000,-0.0100000000,1.4400000000,12.5870000000,6.0000000000,10.0000000000,52.7475740686,2.8755579706,0.5230567372
2026-01-28 17:00:19.772012,241.0000000000,-78.6962766000,35.7273030000,17.7180000000,0.0028917170,-0.0417319015,0.0024425359,-0.0200000000,0.0100000000,1.4500000000,12.5870000000,6.0000000000,10.0000000000,53.7527926030,2.8971966543,0.5057188601
2026-01-28 17:00:20.778439,242.0000000000,-78.6962767000,35.7273031000,16.2170000000,0.0013494228,-0.0416558608,0.0005080914,-0.0200000000,0.0100000000,1.4600000000,12.5870000000,6.0000000000,10.0000000000,54.7575526340,2.9188254680,0.4883888913
2026-01-28 17:00:21.783007,243.0000000000,-78.6962767000,35.7273031000,14.7180000000,0.0012504618,-0.0417422242,0.0002848563,-0.0100000000,0.0000000000,1.4600000000,12.5870000000,6.0000000000,10.0000000000,55.7604569276,2.9404143344,0.4710909299
2026-01-28 17:00:22.789594,244.0000000000,-78.6962768000,35.7273031000,13.2230000000,0.0014780179,-0.0412833206,0.0001930033,-0.0100000000,0.0000000000,1.4600000000,12.5870000000,6.0000000000,10.0000000000,56.7653769492,2.9620465922,0.4537582016
2026-01-28 17:00:23.804403,245.0000000000,-78.6962769000,35.7273031000,11.7290000000,0.0013176050,-0.0418708213,0.0002796256,-0.0100000000,0.0000000000,1.4700000000,12.5870000000,6.0000000000,10.0000000000,57.7785050499,2.9838555399,0.4362839014
2026-01-28 17:00:25.743679,246.0000000000,-78.6962769000,35.7273031000,10.0230000000,0.0014211111,-0.0416049659,0.0004515974,-0.0100000000,0.0000000000,0.4300000000,12.5870000000,6.0000000000,10.0000000000,59.7145692437,3.0255319308,0.4028909208
2026-01-28 17:00:27.742275,247.0000000000,-78.6962770000,35.7273031000,9.0350000000,0.0012334295,-0.0418365300,0.0011423316,-0.0100000000,0.0100000000,0.5100000000,12.5870000000,6.0000000000,10.0000000000,61.7098552554,3.0684831511,0.3684764901
2026-01-28 17:00:28.748537,248.0000000000,-78.6962770000,35.7273031000,8.5310000000,0.0013422057,-0.0416144431,0.0006812913,-0.0100000000,0.0100000000,0.5000000000,12.5870000000,6.0000000000,10.0000000000,62.7144506954,3.0901084218,0.3511493601
2026-01-28 17:00:30.680122,249.0000000000,-78.6962770000,35.7273031000,7.5780000000,0.0006182145,-0.0417567641,0.0005983760,-0.0100000000,0.0100000000,0.5000000000,12.5870000000,6.0000000000,10.0000000000,64.6428366191,3.1316195275,0.3178888133
2026-01-28 17:00:31.686472,250.0000000000,-78.6962771000,35.7273031000,7.0740000000,0.0006665801,-0.0419849232,0.0005257797,0.0000000000,0.0100000000,0.5000000000,12.5870000000,6.0000000000,10.0000000000,65.6475197217,3.1532466853,0.3005601713
2026-01-28 17:00:32.693766,251.0000000000,-78.6962771000,35.7273030000,6.5730000000,-0.0006188771,-0.0421263725,0.0011216216,0.0000000000,0.0100000000,0.4900000000,12.5870000000,6.0000000000,10.0000000000,66.6531453887,3.1748941330,0.2832152721
2026-01-28 17:00:33.699366,252.0000000000,-78.6962771000,35.7273030000,6.0730000000,0.0009660622,-0.0414985679,0.0000838429,0.0000000000,0.0000000000,0.4900000000,12.5870000000,6.0000000000,10.0000000000,67.6570799092,3.1965051765,0.2658995415
2026-01-28 17:00:34.705953,253.0000000000,-78.6962771000,35.7273030000,5.5730000000,0.0005395771,-0.0420504324,0.0008345324,0.0000000000,0.0000000000,0.4900000000,12.5870000000,6.0000000000,10.0000000000,68.6619999308,3.2181374342,0.2485668132
2026-01-28 17:00:36.742408,254.0000000000,-78.6962770000,35.7273030000,4.5190000000,0.0006227234,-0.0413458161,-0.0001969502,0.0000000000,0.0000000000,0.4900000000,12.5870000000,6.0000000000,10.0000000000,70.6950820564,3.2619022668,0.2135004801
2026-01-28 17:00:37.744286,255.0000000000,-78.6962770000,35.7273030000,4.0180000000,0.0000913840,-0.0418718830,-0.0000395346,0.0000000000,0.0000000000,0.4900000000,12.5870000000,6.0000000000,10.0000000000,71.6953007573,3.2834333223,0.1962488395
2026-01-28 17:00:38.745465,256.0000000000,-78.6962770000,35.7273030000,3.5180000000,0.0006698084,-0.0415891670,0.0001920626,0.0000000000,0.0000000000,0.4900000000,12.5870000000,6.0000000000,10.0000000000,72.6948217356,3.3049493583,0.1790092331
2026-01-28 17:00:39.751979,257.0000000000,-78.6962770000,35.7273030000,3.0180000000,-0.0000286243,-0.0415424146,-0.0000747699,0.0000000000,0.0000000000,0.4900000000,12.5870000000,6.0000000000,10.0000000000,73.6996686625,3.3265800426,0.1616777655
2026-01-28 17:00:40.754190,258.0000000000,-78.6962770000,35.7273030000,2.5190000000,-0.0003257121,-0.0418290198,-0.0005151018,0.0000000000,0.0000000000,0.4900000000,12.5870000000,6.0000000000,10.0000000000,74.7002198677,3.3481182557,0.1444203899
2026-01-28 17:00:41.757630,259.0000000000,-78.6962770000,35.7273030000,2.0170000000,-0.0001285914,-0.0419925265,-0.0004797395,0.0000000000,0.0000000000,0.4900000000,12.5870000000,6.0000000000,10.0000000000,75.7019978378,3.3696828765,0.1271418553
2026-01-28 17:00:42.760133,260.0000000000,-78.6962770000,35.7273030000,1.5170000000,0.0001938395,-0.0418378152,0.0000659212,0.0000000000,0.0000000000,0.4900000000,12.5870000000,6.0000000000,10.0000000000,76.7028406553,3.3912273669,0.1098794500
2026-01-28 17:00:44.747243,261.0000000000,-78.6962769000,35.7273029000,0.5180000000,-0.0010478003,-0.0417065062,-0.0002716824,0.0000000000,0.0000000000,0.4900000000,12.5870000000,6.0000000000,10.0000000000,78.6866594825,3.4339317406,0.0756628038
2026-01-28 17:00:45.748916,262.0000000000,-78.6962769000,35.7273029000,0.0360000000,-0.0008294757,-0.0416525826,-0.0005964708,0.0000000000,0.0000000000,0.1000000000,12.5870000000,6.0000000000,10.0000000000,79.6866734669,3.4554583893,0.0584146941
2026-01-28 17:00:46.754826,263.0000000000,-78.6962769000,35.7273028000,0.0350000000,-0.0002675343,-0.0419436991,-0.0004875165,0.0000000000,0.0000000000,0.0100000000,12.5870000000,6.0000000000,10.0000000000,80.6909174900,3.4770760953,0.0410936253
2026-01-28 17:00:47.756512,264.0000000000,-78.6962768000,35.7273028000,0.0240000000,-0.0003371769,-0.0422336496,-0.0005391074,0.0000000000,0.0000000000,0.0100000000,12.5870000000,6.0000000000,10.0000000000,81.6909445088,3.4986030245,0.0238452908
