time,Altitude,BatteryVolts,GPSFix,Latitude,Longitude,NumberOfSatellites,Pitch,Roll,VelocityX,VelocityY,VelocityZ,Yaw,destination,icmp_seq,num,pingtime,size(byte),ttl
2026-01-20 17:45:59.909188,25.0010000000,12.5870000000,6.0000000000,35.7277985359,-78.6985929614,10.0000000000,-0.0336431506,-0.2033140149,1.1015057881,-4.8500000000,0.0000000000,-0.0080530699,172.16.0.1:,7.0000000000,92.1505788142,1464.0000000000,64.0000000000,64.0000000000
2026-01-20 17:46:00.649069,25.0010000000,12.5870000000,6.0000000000,35.7278060450,-78.6986328625,10.0000000000,-0.0326141964,-0.1985403498,1.1088676194,-4.8500000000,0.0000000000,-0.0089395344,172.16.0.1:,9.0000000000,92.8867619440,1796.0000000000,64.0000000000,64.0000000000
2026-01-20 17:46:01.210094,25.0010000000,12.5870000000,6.0000000000,35.7278116928,-78.6986628428,10.0000000000,-0.0319279011,-0.1968150627,1.1055517242,-4.8411034484,0.0000000000,-0.0085735544,172.16.0.1:,11.0000000000,93.4448275801,1949.0000000000,64.0000000000,64.0000000000
2026-01-20 17:46:01.634130,25.0010000000,12.5870000000,6.0000000000,35.7278159526,-78.6986854496,10.0000000000,-0.0314272484,-0.1958754210,1.1013340326,-4.8326680651,0.0000000000,-0.0080972598,172.16.0.1:,14.0000000000,93.8665967448,1757.0000000000,64.0000000000,64.0000000000
2026-01-20 17:46:01.950091,25.0006378179,12.5870000000,6.0000000000,35.7278190023,-78.6987016727,10.0000000000,-0.0248973339,-0.1673641845,1.0637817932,-4.6778835312,0.0000000000,-0.0089351715,172.16.0.1:,15.0000000000,94.1810910342,1872.0000000000,64.0000000000,64.0000000000
2026-01-20 17:46:02.109990,25.0003193389,12.5870000000,6.0000000000,35.7278204991,-78.6987096506,10.0000000000,-0.0192946040,-0.1425546263,1.0319338929,-4.5441223503,0.0000000000,-0.0098044468,172.16.0.1:,16.0000000000,94.3403305353,1825.0000000000,64.0000000000,64.0000000000
2026-01-20 17:46:03.285072,24.9984881559,12.5870000000,6.0000000000,35.7278302317,-78.6987617918,10.0000000000,0.0138090064,0.0132189159,0.7310914608,-3.2836551998,0.0000000000,-0.0131362852,172.16.0.1:,23.0000000000,95.5118440581,1583.0000000000,64.0000000000,64.0000000000
2026-01-20 17:46:04.048065,24.9988166366,12.5870000000,6.0000000000,35.7278345800,-78.6987854442,10.0000000000,0.0265424514,0.0836698264,0.4611151148,-2.1417949937,0.0000000000,-0.0124824570,172.16.0.1:,26.0000000000,96.2722122130,1741.0000000000,64.0000000000,64.0000000000
2026-01-20 17:46:04.669847,25.0006695477,12.5870000000,6.0000000000,35.7278368035,-78.6987977970,10.0000000000,0.0340248190,0.1288373166,0.2140603031,-1.0794593035,0.0000000000,-0.0115815778,172.16.0.1:,29.0000000000,96.8898492421,1748.0000000000,64.0000000000,64.0000000000
2026-01-20 17:46:05.211959,25.0018573822,12.5870000000,6.0000000000,35.7278375001,-78.6988016290,10.0000000000,0.0261930086,0.1020323535,0.0842617843,-0.4784565644,0.0000000000,-0.0126131325,172.16.0.1:,31.0000000000,97.4286910787,1883.0000000000,64.0000000000,64.0000000000
2026-01-20 17:46:05.370025,25.0021716585,12.5870000000,6.0000000000,35.7278376101,-78.6988022262,10.0000000000,0.0228330944,0.0892542145,0.0528341450,-0.3276038961,0.0000000000,-0.0130501446,172.16.0.1:,32.0000000000,97.5858292749,1837.0000000000,64.0000000000,64.0000000000
2026-01-20 17:46:06.083311,25.0021185676,12.5870000000,6.0000000000,35.7278378412,-78.6988031830,10.0000000000,0.0105168257,0.0403482525,-0.0388143244,0.1140716219,0.0000000000,-0.0140916462,172.16.0.1:,36.0000000000,98.2938108130,1730.0000000000,64.0000000000,64.0000000000
2026-01-20 17:46:07.513816,24.9980030920,12.5870000000,6.0000000000,35.7278384988,-78.6988059601,10.0000000000,-0.0473629355,-0.1965652352,0.2728180070,-1.1778356293,0.0000000000,-0.0066779538,172.16.0.1:,47.0000000000,99.6656360140,920.0000000000,64.0000000000,64.0000000000
2026-01-20 17:46:08.862013,24.9991098937,12.5870000000,6.0000000000,35.7278469176,-78.6988490847,10.0000000000,-0.0558069109,-0.2560478743,0.7934071963,-3.3305519250,0.0000000000,-0.0077079390,172.16.0.1:,50.0000000000,100.5274734273,1657.0000000000,64.0000000000,64.0000000000
2026-01-20 17:46:09.139872,24.9997033820,12.5870000000,6.0000000000,35.7278491729,-78.6988606132,10.0000000000,-0.0511790829,-0.2444755274,0.8928164882,-3.7385751380,0.0000000000,-0.0090077257,172.16.0.1:,51.0000000000,100.6758455047,1727.0000000000,64.0000000000,64.0000000000
2026-01-20 17:46:09.606875,25.0007008688,12.5870000000,6.0000000000,35.7278529633,-78.6988799894,10.0000000000,-0.0434010068,-0.2250256701,1.0598955232,-4.4243472965,0.0000000000,-0.0111923013,172.16.0.1:,54.0000000000,100.9252171987,1586.0000000000,64.0000000000,64.0000000000
2026-01-20 17:46:10.318917,24.9970037110,12.5870000000,6.0000000000,35.7278599803,-78.6989162289,10.0000000000,-0.0386473306,-0.2161762586,1.1271269528,-4.7498886695,0.0000000000,-0.0122990564,172.16.0.1:,57.0000000000,101.5708984264,1686.0000000000,64.0000000000,64.0000000000
2026-01-20 17:46:10.475888,24.9959070207,12.5870000000,6.0000000000,35.7278615940,-78.6989245794,10.0000000000,-0.0379829016,-0.2153483960,1.1318270540,-4.7827893782,0.0000000000,-0.0124229970,172.16.0.1:,58.0000000000,101.7275684675,1637.0000000000,64.0000000000,64.0000000000
2026-01-20 17:46:11.470287,24.9940000000,12.5870000000,6.0000000000,35.7278719973,-78.6989783048,10.0000000000,-0.0357451344,-0.2116335783,1.1400000000,-4.8901706189,0.0000000000,-0.0129896057,172.16.0.1:,62.0000000000,102.7167231268,1828.0000000000,64.0000000000,64.0000000000
2026-01-20 17:46:12.354287,24.9951958152,12.5870000000,6.0000000000,35.7278812780,-78.6990266849,10.0000000000,-0.0348929074,-0.2069996340,1.1400000000,-4.9219581521,0.0000000000,-0.0130929514,172.16.0.1:,66.0000000000,103.5979076048,1893.0000000000,64.0000000000,64.0000000000
2026-01-20 17:46:13.013901,24.9965127472,12.5870000000,6.0000000000,35.7278881919,-78.6990628749,10.0000000000,-0.0343860854,-0.2032468650,1.1374362642,-4.9197450569,0.0000000000,-0.0132038583,172.16.0.1:,69.0000000000,104.2563735769,1941.0000000000,64.0000000000,64.0000000000
2026-01-20 17:46:13.191882,24.9968680032,12.5870000000,6.0000000000,35.7278900570,-78.6990726267,10.0000000000,-0.0342326890,-0.2023868990,1.1356599841,-4.9126399364,0.0000000000,-0.0132972029,172.16.0.1:,70.0000000000,104.4340015907,1914.0000000000,64.0000000000,64.0000000000
2026-01-20 17:46:15.409931,24.9986406900,12.5870000000,6.0000000000,35.7279129991,-78.6991925973,10.0000000000,-0.0342817824,-0.2005033792,1.1200000000,-4.8471861991,0.0000000000,-0.0132020942,172.16.0.1:,81.0000000000,106.6406900474,1895.0000000000,64.0000000000,64.0000000000
2026-01-20 17:46:15.626207,24.9988555898,12.5870000000,6.0000000000,35.7279152126,-78.6992042018,10.0000000000,-0.0344745053,-0.2007291350,1.1200000000,-4.8428882045,0.0000000000,-0.0132061366,172.16.0.1:,82.0000000000,106.8555897769,1905.0000000000,64.0000000000,64.0000000000
2026-01-20 17:46:16.289964,24.9995149814,12.5870000000,6.0000000000,35.7279220043,-78.6992396030,10.0000000000,-0.0350865888,-0.2026002904,1.1251498138,-4.8502996276,0.0000000000,-0.0128287069,172.16.0.1:,86.0000000000,107.5149813801,1753.0000000000,64.0000000000,64.0000000000
2026-01-20 17:46:16.514917,24.9997384415,12.5870000000,6.0000000000,35.7279243059,-78.6992515805,10.0000000000,-0.0352959876,-0.2033463921,1.1273844151,-4.8547688302,0.0000000000,-0.0126637543,172.16.0.1:,87.0000000000,107.7384415113,1774.0000000000,64.0000000000,64.0000000000
2026-01-20 17:46:16.719897,24.9999420611,12.5870000000,6.0000000000,35.7279264032,-78.6992624945,10.0000000000,-0.0354867943,-0.2040262490,1.1294206108,-4.8588412216,0.0000000000,-0.0125134475,172.16.0.1:,88.0000000000,107.9420610790,1775.0000000000,64.0000000000,64.0000000000
2026-01-20 17:46:17.121857,25.0003431532,12.5870000000,6.0000000000,35.7279305688,-78.6992841646,10.0000000000,-0.0353587199,-0.2031036881,1.1300000000,-4.8600000000,0.0000000000,-0.0128377863,172.16.0.1:,90.0000000000,108.3431532200,1769.0000000000,64.0000000000,64.0000000000
2026-01-20 17:46:17.658913,25.0008794579,12.5870000000,6.0000000000,35.7279361464,-78.6993131787,10.0000000000,-0.0350737028,-0.2013595054,1.1300000000,-4.8600000000,0.0000000000,-0.0134115291,172.16.0.1:,93.0000000000,108.8794579472,1701.0000000000,64.0000000000,64.0000000000
2026-01-20 17:46:18.870782,25.0010000000,12.5870000000,6.0000000000,35.7279485756,-78.6993780635,10.0000000000,-0.0345688443,-0.2022112202,1.1291580322,-4.8583160644,0.0000000000,-0.0135094690,172.16.0.1:,99.0000000000,110.0841967788,1701.0000000000,64.0000000000,64.0000000000
2026-01-20 17:46:19.265872,25.0010000000,12.5870000000,6.0000000000,35.7279526232,-78.6993991573,10.0000000000,-0.0342657195,-0.2002887795,1.1252661727,-4.8505323454,0.0000000000,-0.0133930900,172.16.0.1:,101.0000000000,110.4733827293,1689.0000000000,64.0000000000,64.0000000000
2026-01-20 17:46:19.575873,25.0010000000,12.5870000000,6.0000000000,35.7279557990,-78.6994157083,10.0000000000,-0.0340278773,-0.1987803664,1.1222124858,-4.8444249715,0.0000000000,-0.0133017750,172.16.0.1:,103.0000000000,110.7787514235,1590.0000000000,64.0000000000,64.0000000000
2026-01-20 17:46:20.086224,25.0010000000,12.5870000000,6.0000000000,35.7279613227,-78.6994444692,10.0000000000,-0.0343090834,-0.1996027505,1.1228519091,-4.8428519091,0.0000000000,-0.0131342585,172.16.0.1:,105.0000000000,111.2851909066,1689.0000000000,64.0000000000,64.0000000000
2026-01-20 17:46:20.892167,25.0010000000,12.5870000000,6.0000000000,35.7279702421,-78.6994908717,10.0000000000,-0.0353957824,-0.2040080174,1.1300000000,-4.8491041624,0.0000000000,-0.0128878803,172.16.0.1:,109.0000000000,112.0895837587,1679.0000000000,64.0000000000,64.0000000000
2026-01-20 17:46:21.959759,25.0010000000,12.5870000000,6.0000000000,35.7279805470,-78.6995444060,10.0000000000,-0.0350860558,-0.2005101136,1.1300000000,-4.8415460142,0.0000000000,-0.0130211071,172.16.0.1:,115.0000000000,113.1546014209,1535.0000000000,64.0000000000,64.0000000000
2026-01-20 17:46:22.721998,25.0010000000,12.5870000000,6.0000000000,35.7279891073,-78.6995890255,10.0000000000,-0.0360601641,-0.2030512714,1.1300000000,-4.8491214744,0.0000000000,-0.0132923201,172.16.0.1:,119.0000000000,113.9121474417,1485.0000000000,64.0000000000,64.0000000000
2026-01-20 17:46:23.302770,25.0005100123,12.5870000000,6.0000000000,35.7279951959,-78.6996207573,10.0000000000,-0.0350640325,-0.2014739231,1.1300000000,-4.8500000000,0.0000000000,-0.0131475907,172.16.0.1:,123.0000000000,114.4899877257,1245.0000000000,64.0000000000,64.0000000000
2026-01-20 17:46:23.489764,25.0003239248,12.5870000000,6.0000000000,35.7279971312,-78.6996308433,10.0000000000,-0.0346428190,-0.2007629575,1.1300000000,-4.8500000000,0.0000000000,-0.0130806803,172.16.0.1:,124.0000000000,114.6760752476,1228.0000000000,64.0000000000,64.0000000000
2026-01-20 17:46:23.937886,25.0001219847,12.5870000000,6.0000000000,35.7280017564,-78.6996549628,10.0000000000,-0.0341158173,-0.1996919265,1.1300000000,-4.8487801530,0.0000000000,-0.0128310999,172.16.0.1:,126.0000000000,115.1219847001,1269.0000000000,64.0000000000,64.0000000000
2026-01-20 17:46:24.064795,25.0002482373,12.5870000000,6.0000000000,35.7280030568,-78.6996617552,10.0000000000,-0.0343292415,-0.1998643090,1.1300000000,-4.8475176274,0.0000000000,-0.0126933342,172.16.0.1:,127.0000000000,115.2482372602,1195.0000000000,64.0000000000,64.0000000000
2026-01-20 17:46:25.824748,25.0010000000,12.5870000000,6.0000000000,35.7280212142,-78.6997563743,10.0000000000,-0.0335312951,-0.1971065346,1.1200139415,-4.8300139415,0.0000000000,-0.0135847752,172.16.0.1:,133.0000000000,117.0013941535,1735.0000000000,64.0000000000,64.0000000000
2026-01-20 17:46:26.022772,25.0010000000,12.5870000000,6.0000000000,35.7280232211,-78.6997668614,10.0000000000,-0.0341666546,-0.1986829830,1.1219815039,-4.8319815039,0.0000000000,-0.0135555041,172.16.0.1:,134.0000000000,117.1981503875,1729.0000000000,64.0000000000,64.0000000000
2026-01-20 17:46:27.345756,25.0010000000,12.5870000000,6.0000000000,35.7280367362,-78.6998373074,10.0000000000,-0.0355724933,-0.2029754880,1.1300000000,-4.8502620057,0.0000000000,-0.0127853800,172.16.0.1:,140.0000000000,118.5131002866,1813.0000000000,64.0000000000,64.0000000000
2026-01-20 17:46:28.249427,25.0005673651,12.5870000000,6.0000000000,35.7280458884,-78.6998848207,10.0000000000,-0.0257353605,-0.1641183730,1.0780838075,-4.6523352301,0.0000000000,-0.0135674231,172.16.0.1:,145.0000000000,119.2163174687,1600.0000000000,64.0000000000,64.0000000000
2026-01-20 17:46:28.311646,25.0005023533,12.5870000000,6.0000000000,35.7280465028,-78.6998880096,10.0000000000,-0.0244258998,-0.1585833661,1.0702823980,-4.6211295919,0.0000000000,-0.0137777466,172.16.0.1:,146.0000000000,119.2488233418,1458.0000000000,64.0000000000,64.0000000000
2026-01-20 17:46:28.675981,25.0001216648,12.5870000000,6.0000000000,35.7280501003,-78.6999066823,10.0000000000,-0.0167581062,-0.1261720921,1.0245997770,-4.4383991082,0.0000000000,-0.0150093349,172.16.0.1:,148.0000000000,119.4391675956,1411.0000000000,64.0000000000,64.0000000000
2026-01-20 17:46:29.702753,24.9990488056,12.5870000000,6.0000000000,35.7280602388,-78.6999593061,10.0000000000,0.0048513282,-0.0348303928,0.8958566664,-3.9234266657,0.0000000000,-0.0184802067,172.16.0.1:,153.0000000000,119.9755972232,1429.0000000000,64.0000000000,64.0000000000
2026-01-20 17:46:29.906438,24.9990812349,12.5870000000,6.0000000000,35.7280615205,-78.6999660704,10.0000000000,0.0082388272,-0.0174313337,0.8331355418,-3.6603569260,0.0000000000,-0.0184784448,172.16.0.1:,154.0000000000,120.0812349403,1433.0000000000,64.0000000000,64.0000000000
2026-01-20 17:46:30.408614,24.9993411108,12.5870000000,6.0000000000,35.7280641452,-78.6999800518,10.0000000000,0.0159308569,0.0249365193,0.6512224501,-2.8937231828,0.0000000000,-0.0179676960,172.16.0.1:,157.0000000000,120.3411107855,1331.0000000000,64.0000000000,64.0000000000
2026-01-20 17:46:30.561825,24.9994203975,12.5870000000,6.0000000000,35.7280649460,-78.6999843174,10.0000000000,0.0182776529,0.0378627182,0.5957217663,-2.6598274436,0.0000000000,-0.0178118694,172.16.0.1:,158.0000000000,120.4203974767,1281.0000000000,64.0000000000,64.0000000000
2026-01-20 17:46:30.865685,24.9995776449,12.5870000000,6.0000000000,35.7280665342,-78.6999927773,10.0000000000,0.0229319970,0.0634989383,0.4856485923,-2.1959476392,0.0000000000,-0.0175028221,172.16.0.1:,159.0000000000,120.5776448681,1380.0000000000,64.0000000000,64.0000000000
2026-01-20 17:46:31.052908,24.9996745327,12.5870000000,6.0000000000,35.7280675128,-78.6999979899,10.0000000000,0.0257997669,0.0792946717,0.4178271074,-1.9101285240,0.0000000000,-0.0173124029,172.16.0.1:,160.0000000000,120.6745327037,1364.0000000000,64.0000000000,64.0000000000
2026-01-20 17:46:31.410794,24.9998597385,12.5870000000,6.0000000000,35.7280693834,-78.7000079539,10.0000000000,0.0312816485,0.1094889848,0.2881830384,-1.3637713763,0.0000000000,-0.0169484074,172.16.0.1:,162.0000000000,120.8597385165,1320.0000000000,64.0000000000,64.0000000000
2026-01-20 17:46:32.493690,25.0016141880,12.5870000000,6.0000000000,35.7280714457,-78.7000188898,10.0000000000,0.0178812935,0.0659772508,0.0124393170,-0.1509769265,0.0000000000,-0.0184089826,172.16.0.1:,167.0000000000,121.8070940136,1398.0000000000,64.0000000000,64.0000000000
2026-01-20 17:46:33.294757,25.0007924584,12.5870000000,6.0000000000,35.7280714792,-78.7000185528,10.0000000000,0.0065689445,0.0214907039,-0.0481131240,0.1486787437,0.0000000000,-0.0188574775,172.16.0.1:,171.0000000000,122.6037707984,1385.0000000000,64.0000000000,64.0000000000
2026-01-20 17:46:34.375677,24.9972928694,12.5870000000,6.0000000000,35.7280715354,-78.7000187475,10.0000000000,-0.0499006343,-0.1982308240,0.1565704449,-0.7004243906,0.0000000000,-0.0113695617,172.16.0.1:,176.0000000000,123.6767826402,1446.0000000000,64.0000000000,64.0000000000
2026-01-20 17:46:34.523797,24.9967054014,12.5870000000,6.0000000000,35.7280715647,-78.7000189531,10.0000000000,-0.0611413816,-0.2418360489,0.2035678847,-0.9001635099,0.0000000000,-0.0097398544,172.16.0.1:,177.0000000000,123.8236496396,1391.0000000000,64.0000000000,64.0000000000
2026-01-20 17:46:34.997909,24.9965897446,12.5870000000,6.0000000000,35.7280730744,-78.7000268077,10.0000000000,-0.0781014220,-0.3115051986,0.4398720938,-1.8594883751,0.0000000000,-0.0065353296,172.16.0.1:,179.0000000000,124.2948722849,1465.0000000000,64.0000000000,64.0000000000
2026-01-20 17:46:35.165771,24.9969238994,12.5870000000,6.0000000000,35.7280739097,-78.7000311183,10.0000000000,-0.0800634359,-0.3213133389,0.5417893137,-2.2671572550,0.0000000000,-0.0058283961,172.16.0.1:,180.0000000000,124.4619496947,1424.0000000000,64.0000000000,64.0000000000
2026-01-20 17:46:35.416755,24.9974235210,12.5870000000,6.0000000000,35.7280751588,-78.7000375634,10.0000000000,-0.0829970000,-0.3359782744,0.6941739069,-2.8766956276,0.0000000000,-0.0047714032,172.16.0.1:,182.0000000000,124.7117605031,1263.0000000000,64.0000000000,64.0000000000
2026-01-20 17:46:35.629931,24.9978478803,12.5870000000,6.0000000000,35.7280762197,-78.7000430377,10.0000000000,-0.0854886561,-0.3484341044,0.8236034963,-3.3944139852,0.0000000000,-0.0038736343,172.16.0.1:,183.0000000000,124.9239401579,1268.0000000000,64.0000000000,64.0000000000
2026-01-20 17:46:35.975653,24.9988056778,12.5870000000,6.0000000000,35.7280790976,-78.7000575686,10.0000000000,-0.0754274482,-0.3177004218,0.9398254116,-3.8431880898,0.0000000000,-0.0068479123,172.16.0.1:,184.0000000000,125.2685592753,1414.0000000000,64.0000000000,64.0000000000
2026-01-20 17:46:36.580778,25.0006160249,12.5870000000,6.0000000000,35.7280847097,-78.7000858100,10.0000000000,-0.0508130842,-0.2386093946,1.0967221601,-4.4345681420,0.0000000000,-0.0142542051,172.16.0.1:,188.0000000000,125.8720083082,1203.0000000000,64.0000000000,64.0000000000
2026-01-20 17:46:37.066127,24.9985079139,12.5870000000,6.0000000000,35.7280899941,-78.7001123419,10.0000000000,-0.0435760960,-0.2202690240,1.1478006152,-4.6561233221,0.0000000000,-0.0161578196,172.16.0.1:,191.0000000000,126.3560123040,1080.0000000000,64.0000000000,64.0000000000
2026-01-20 17:46:37.311294,24.9967965035,12.5870000000,6.0000000000,35.7280928057,-78.7001264488,10.0000000000,-0.0421914429,-0.2191941802,1.1600249751,-4.7221348653,0.0000000000,-0.0163863235,172.16.0.1:,192.0000000000,126.6004995010,1117.0000000000,64.0000000000,64.0000000000
2026-01-20 17:46:37.657827,24.9943774963,12.5870000000,6.0000000000,35.7280967798,-78.7001463884,10.0000000000,-0.0402342935,-0.2176749333,1.1773035981,-4.8154394299,0.0000000000,-0.0167093042,172.16.0.1:,194.0000000000,126.9460719628,1056.0000000000,64.0000000000,64.0000000000
2026-01-20 17:46:38.020169,24.9936942991,12.5870000000,6.0000000000,35.7281007321,-78.7001662830,10.0000000000,-0.0389492779,-0.2147980208,1.1800000000,-4.8575130845,0.0000000000,-0.0169592208,172.16.0.1:,196.0000000000,127.3057009393,1007.0000000000,64.0000000000,64.0000000000
2026-01-20 17:46:39.117789,24.9937929303,12.5870000000,6.0000000000,35.7281125025,-78.7002260074,10.0000000000,-0.0259008488,-0.1667614703,1.1443181355,-4.7931311483,0.0000000000,-0.0192305266,172.16.0.1:,201.0000000000,128.3964651616,1088.0000000000,64.0000000000,64.0000000000
2026-01-20 17:46:39.305821,24.9941680154,12.5870000000,6.0000000000,35.7281144905,-78.7002362284,10.0000000000,-0.0207808885,-0.1468745149,1.1274393078,-4.7331175390,0.0000000000,-0.0200905900,172.16.0.1:,202.0000000000,128.5840076906,1073.0000000000,64.0000000000,64.0000000000
2026-01-20 17:46:39.982773,24.9944816975,12.5870000000,6.0000000000,35.7281212064,-78.7002706914,10.0000000000,-0.0030174521,-0.0729020199,1.0070716019,-4.2838354822,0.0000000000,-0.0223420313,172.16.0.1:,206.0000000000,129.2591512441,921.0000000000,64.0000000000,64.0000000000
2026-01-20 17:46:40.296767,24.9938554562,12.5870000000,6.0000000000,35.7281239932,-78.7002849384,10.0000000000,0.0047235165,-0.0368225852,0.9068729930,-3.9018282857,0.0000000000,-0.0227573268,172.16.0.1:,208.0000000000,129.5722718970,835.0000000000,64.0000000000,64.0000000000
2026-01-20 17:46:40.719778,24.9930117872,12.5870000000,6.0000000000,35.7281277475,-78.7003041318,10.0000000000,0.0151521095,0.0117834426,0.7718859450,-3.3871901653,0.0000000000,-0.0233168107,172.16.0.1:,210.0000000000,129.9941064219,850.0000000000,64.0000000000,64.0000000000
2026-01-20 17:46:40.929803,24.9938113428,12.5870000000,6.0000000000,35.7281289359,-78.7003104242,10.0000000000,0.0199222263,0.0353448462,0.6929224353,-3.0595195994,0.0000000000,-0.0229983605,172.16.0.1:,211.0000000000,130.2028356966,860.0000000000,64.0000000000,64.0000000000
2026-01-20 17:46:41.143194,24.9946595577,12.5870000000,6.0000000000,35.7281301234,-78.7003167222,10.0000000000,0.0247568022,0.0592670646,0.6123420216,-2.7244747215,0.0000000000,-0.0226572661,172.16.0.1:,212.0000000000,130.4148894168,870.0000000000,64.0000000000,64.0000000000
2026-01-20 17:46:41.594669,24.9964541393,12.5870000000,6.0000000000,35.7281326358,-78.7003300470,10.0000000000,0.0349853910,0.1098796815,0.4418567621,-2.0156149581,0.0000000000,-0.0219356073,172.16.0.1:,214.0000000000,130.8635348367,921.0000000000,64.0000000000,64.0000000000
2026-01-20 17:46:41.926770,24.9977773301,12.5870000000,6.0000000000,35.7281338081,-78.7003362765,10.0000000000,0.0362003193,0.1204875293,0.3200402922,-1.5065578925,0.0000000000,-0.0218938234,172.16.0.1:,215.0000000000,131.1943325215,1051.0000000000,64.0000000000,64.0000000000
2026-01-20 17:46:42.827779,25.0008133640,12.5870000000,6.0000000000,35.7281355093,-78.7003452813,10.0000000000,0.0263481937,0.0933152706,0.0216013790,-0.2452073546,0.0000000000,-0.0227601086,172.16.0.1:,218.0000000000,132.0933180112,1346.0000000000,64.0000000000,64.0000000000
2026-01-20 17:46:43.020652,25.0004283980,12.5870000000,6.0000000000,35.7281355286,-78.7003452428,10.0000000000,0.0222428118,0.0782043832,0.0042779097,-0.1528155182,0.0000000000,-0.0230271668,172.16.0.1:,220.0000000000,132.2858010037,1134.0000000000,64.0000000000,64.0000000000
2026-01-20 17:46:43.197822,25.0000747746,12.5870000000,6.0000000000,35.7281355463,-78.7003452075,10.0000000000,0.0184716757,0.0643237712,-0.0116351435,-0.0679459011,0.0000000000,-0.0232724820,172.16.0.1:,221.0000000000,132.4626127061,1111.0000000000,64.0000000000,64.0000000000
2026-01-20 17:46:44.052395,24.9980584794,12.5870000000,6.0000000000,35.7281356314,-78.7003442212,10.0000000000,-0.0603636403,0.0334886325,0.1031968971,0.2307992243,0.0000000000,-0.0259062170,172.16.0.1:,226.0000000000,133.3138401867,950.0000000000,64.0000000000,64.0000000000
2026-01-20 17:46:44.261987,24.9974341925,12.5870000000,6.0000000000,35.7281356522,-78.7003436386,10.0000000000,-0.1050365622,0.0410160348,0.2114066298,0.2578516575,0.0000000000,-0.0271581741,172.16.0.1:,227.0000000000,133.5219358266,959.0000000000,64.0000000000,64.0000000000
2026-01-20 17:46:44.611800,24.9963922462,12.5870000000,6.0000000000,35.7281356869,-78.7003426661,10.0000000000,-0.1795964867,0.0535794070,0.3920106549,0.3030026637,0.0000000000,-0.0292477134,172.16.0.1:,229.0000000000,133.8692512594,899.0000000000,64.0000000000,64.0000000000
2026-01-20 17:46:44.732790,24.9960318679,12.5870000000,6.0000000000,35.7281356989,-78.7003423297,10.0000000000,-0.2053845561,0.0579247053,0.4544762374,0.3186190594,0.0000000000,-0.0299704232,172.16.0.1:,230.0000000000,133.9893773797,811.0000000000,64.0000000000,64.0000000000
2026-01-20 17:46:45.491164,24.9974892528,12.5870000000,6.0000000000,35.7281470183,-78.7003368642,10.0000000000,-0.2946578889,0.0905731427,2.3066735097,0.7965609057,0.0000000000,-0.0374352165,172.16.0.1:,234.0000000000,134.7446264152,760.0000000000,64.0000000000,64.0000000000
2026-01-20 17:46:46.014651,24.9993321237,12.5870000000,6.0000000000,35.7281601716,-78.7003313766,10.0000000000,-0.2991457080,0.0912424414,3.3343086054,1.0718983880,0.0000000000,-0.0378057159,172.16.0.1:,236.0000000000,135.2664247334,885.0000000000,64.0000000000,64.0000000000
2026-01-20 17:46:46.297756,25.0007442398,12.5870000000,6.0000000000,35.7281699999,-78.7003275357,10.0000000000,-0.2722767921,0.0802223053,3.7522949884,1.1905161453,0.0000000000,-0.0355078762,172.16.0.1:,237.0000000000,135.5488479651,960.0000000000,64.0000000000,64.0000000000
2026-01-20 17:46:46.717833,25.0028395668,12.5870000000,6.0000000000,35.7281845834,-78.7003218364,10.0000000000,-0.2324081423,0.0638704007,4.3725117783,1.3665236128,0.0000000000,-0.0320982943,172.16.0.1:,239.0000000000,135.9679133637,976.0000000000,64.0000000000,64.0000000000
2026-01-20 17:46:47.043800,25.0012395057,12.5870000000,6.0000000000,35.7281977887,-78.7003168521,10.0000000000,-0.2254340172,0.0602571820,4.5109588726,1.3976049431,0.0000000000,-0.0314210722,172.16.0.1:,241.0000000000,136.2934157180,898.0000000000,64.0000000000,64.0000000000
2026-01-20 17:46:48.317881,24.9947373413,12.5870000000,6.0000000000,35.7282516761,-78.7002968494,10.0000000000,-0.2109480621,0.0528912304,4.8091930552,1.4513132936,0.0000000000,-0.0303248944,172.16.0.1:,247.0000000000,137.5656646801,961.0000000000,64.0000000000,64.0000000000
2026-01-20 17:46:48.919664,24.9931664092,12.5870000000,6.0000000000,35.7282779887,-78.7002872375,10.0000000000,-0.1905245511,0.0463025297,4.8250695276,1.4450231759,0.0000000000,-0.0295960352,172.16.0.1:,250.0000000000,138.1664091571,946.0000000000,64.0000000000,64.0000000000
2026-01-20 17:46:51.318374,24.9921197666,12.5870000000,6.0000000000,35.7283651612,-78.7002556730,10.0000000000,0.0714063592,-0.0281105786,2.5465820475,0.7424536807,0.0000000000,-0.0277821293,172.16.0.1:,261.0000000000,140.5598833029,969.0000000000,64.0000000000,64.0000000000
2026-01-20 17:46:52.100009,24.9950403439,12.5870000000,6.0000000000,35.7283790965,-78.7002506438,10.0000000000,0.1129522817,-0.0372339240,1.3397122987,0.3903747787,0.0000000000,-0.0291154668,172.16.0.1:,265.0000000000,141.3400573211,935.0000000000,64.0000000000,64.0000000000
2026-01-20 17:46:52.692428,24.9985867899,12.5870000000,6.0000000000,35.7283846526,-78.7002486342,10.0000000000,0.1015850146,-0.0315565373,0.4353685656,0.1303020712,0.0000000000,-0.0286990082,172.16.0.1:,267.0000000000,141.9311316564,1127.0000000000,64.0000000000,64.0000000000
2026-01-20 17:46:53.574308,24.9973777257,12.5870000000,6.0000000000,35.7283854622,-78.7002482378,10.0000000000,0.0379374837,-0.0108418806,-0.0755685712,-0.0054478285,0.0000000000,-0.0272631568,172.16.0.1:,271.0000000000,142.8111371424,1189.0000000000,64.0000000000,64.0000000000
2026-01-20 17:46:53.931362,24.9964976284,12.5870000000,6.0000000000,35.7283851483,-78.7002483005,10.0000000000,0.0227506661,0.0117503906,-0.1750237159,-0.0032068485,0.0000000000,-0.0267527047,172.16.0.1:,274.0000000000,143.1674571970,934.0000000000,64.0000000000,64.0000000000
2026-01-20 17:46:54.857603,24.9941835008,12.5870000000,6.0000000000,35.7283830330,-78.7002475430,10.0000000000,0.0247985142,0.1209159235,-0.2449577032,0.3529535077,-0.0009175041,-0.0246473467,172.16.0.1:,277.0000000000,144.0917504147,1247.0000000000,64.0000000000,64.0000000000
2026-01-20 17:46:55.977057,24.9978727440,12.5870000000,6.0000000000,35.7283776521,-78.7002268183,10.0000000000,0.0745067265,0.3062948086,-0.7794755461,2.9491145843,-0.0079191733,-0.0141750988,172.16.0.1:,282.0000000000,145.2080826654,1335.0000000000,64.0000000000,64.0000000000
2026-01-20 17:46:57.895318,25.0023919758,12.5870000000,6.0000000000,35.7283594867,-78.7001379212,10.0000000000,0.0466368961,0.2219285673,-1.1936481453,4.8018888716,0.0000000000,-0.0212811395,172.16.0.1:,291.0000000000,147.1216048423,1422.0000000000,64.0000000000,64.0000000000
2026-01-20 17:46:58.470196,24.9995345081,12.5870000000,6.0000000000,35.7283533145,-78.7001070034,10.0000000000,0.0443061151,0.2191722118,-1.2107929515,4.9047577088,0.0000000000,-0.0221211581,172.16.0.1:,300.0000000000,147.6930983821,157.0000000000,64.0000000000,64.0000000000
2026-01-20 17:46:59.928182,24.9958571986,12.5870000000,6.0000000000,35.7283376577,-78.7000273031,10.0000000000,0.0407331881,0.2083104917,-1.2071439711,4.9857159566,0.0000000000,-0.0223099610,172.16.0.1:,301.0000000000,149.1428014452,1415.0000000000,64.0000000000,64.0000000000
2026-01-20 17:47:00.259255,24.9955280743,12.5870000000,6.0000000000,35.7283341032,-78.7000091025,10.0000000000,0.0403731965,0.2058422582,-1.2005614857,4.9758422285,0.0000000000,-0.0223781380,172.16.0.1:,302.0000000000,149.4719257165,1542.0000000000,64.0000000000,64.0000000000
2026-01-20 17:47:00.696189,24.9950937123,12.5870000000,6.0000000000,35.7283294121,-78.6999850823,10.0000000000,0.0398980973,0.2025848051,-1.1918742453,4.9628113679,0.0000000000,-0.0224681146,172.16.0.1:,305.0000000000,149.9062877366,1359.0000000000,64.0000000000,64.0000000000
2026-01-20 17:47:01.360205,24.9950000000,12.5870000000,6.0000000000,35.7283224164,-78.6999490790,10.0000000000,0.0399506832,0.2020269834,-1.1787102744,4.9317756859,0.0000000000,-0.0230556332,172.16.0.1:,308.0000000000,150.5644862819,1414.0000000000,64.0000000000,64.0000000000
2026-01-20 17:47:03.086353,24.9940679966,12.5870000000,6.0000000000,35.7283040996,-78.6998548405,10.0000000000,0.0400341235,0.2023167862,-1.1606799664,4.9100000000,0.0000000000,-0.0229009097,172.16.0.1:,316.0000000000,151.9320033603,1509.0000000000,64.0000000000,64.0000000000
2026-01-20 17:47:04.006194,24.9931769926,12.5870000000,6.0000000000,35.7282944584,-78.6998054222,10.0000000000,0.0415971628,0.2045407182,-1.1682300740,4.9017699260,0.0000000000,-0.0228765038,172.16.0.1:,320.0000000000,152.8230073981,1609.0000000000,64.0000000000,64.0000000000
2026-01-20 17:47:04.634270,24.9925526191,12.5870000000,6.0000000000,35.7282879025,-78.6997716520,10.0000000000,0.0413057913,0.2027380343,-1.1700000000,4.9000000000,0.0000000000,-0.0227864672,172.16.0.1:,323.0000000000,153.4473809333,1617.0000000000,64.0000000000,64.0000000000
2026-01-20 17:47:04.954314,24.9922347521,12.5870000000,6.0000000000,35.7282845649,-78.6997544236,10.0000000000,0.0408595361,0.2011193863,-1.1700000000,4.9000000000,0.0000000000,-0.0227196138,172.16.0.1:,324.0000000000,153.7652478869,1736.0000000000,64.0000000000,64.0000000000
2026-01-20 17:47:05.434638,24.9922423376,12.5870000000,6.0000000000,35.7282795797,-78.6997286622,10.0000000000,0.0407759950,0.2005435573,-1.1675766243,4.8951532485,0.0000000000,-0.0228022877,172.16.0.1:,327.0000000000,154.2423375747,1601.0000000000,64.0000000000,64.0000000000
2026-01-20 17:47:06.030160,24.9928338888,12.5870000000,6.0000000000,35.7282734276,-78.6996968368,10.0000000000,0.0413765562,0.2020559655,-1.1616611116,4.8833222233,0.0000000000,-0.0231246163,172.16.0.1:,329.0000000000,154.8338888368,1793.0000000000,64.0000000000,64.0000000000
2026-01-20 17:47:06.189576,24.9929922420,12.5870000000,6.0000000000,35.7282717807,-78.6996883174,10.0000000000,0.0415373212,0.2024608242,-1.1600775798,4.8801551595,0.0000000000,-0.0232109009,172.16.0.1:,330.0000000000,154.9922420240,1745.0000000000,64.0000000000,64.0000000000
2026-01-20 17:47:06.686168,24.9926845277,12.5870000000,6.0000000000,35.7282664316,-78.6996607378,10.0000000000,0.0418937588,0.2029216977,-1.1631547231,4.8768452769,0.0000000000,-0.0231098361,172.16.0.1:,333.0000000000,155.3154723125,1636.0000000000,64.0000000000,64.0000000000
2026-01-20 17:47:08.620708,24.9920000000,12.5870000000,6.0000000000,35.7282459242,-78.6995551993,10.0000000000,0.0426188433,0.2066430507,-1.1700000000,4.8961801457,0.0000000000,-0.0221934987,172.16.0.1:,343.0000000000,156.8726715235,1547.0000000000,64.0000000000,64.0000000000
2026-01-20 17:47:08.962175,24.9924272342,12.5870000000,6.0000000000,35.7282423570,-78.6995368433,10.0000000000,0.0424603179,0.2059523942,-1.1700000000,4.9000000000,0.0000000000,-0.0222250088,172.16.0.1:,345.0000000000,157.2136171181,1477.0000000000,64.0000000000,64.0000000000
2026-01-20 17:47:09.402197,24.9933059050,12.5870000000,6.0000000000,35.7282377440,-78.6995130753,10.0000000000,0.0421436617,0.2037024300,-1.1700000000,4.9000000000,0.0000000000,-0.0224962291,172.16.0.1:,347.0000000000,157.6529525056,1505.0000000000,64.0000000000,64.0000000000
2026-01-20 17:47:09.542234,24.9935855422,12.5870000000,6.0000000000,35.7282362759,-78.6995055111,10.0000000000,0.0420428858,0.2029863783,-1.1700000000,4.9000000000,0.0000000000,-0.0225825450,172.16.0.1:,348.0000000000,157.7927711059,1437.0000000000,64.0000000000,64.0000000000
2026-01-20 17:47:09.738208,24.9939768784,12.5870000000,6.0000000000,35.7282342214,-78.6994949254,10.0000000000,0.0419018558,0.2019843052,-1.1700000000,4.9000000000,0.0000000000,-0.0227033391,172.16.0.1:,349.0000000000,157.9884391882,1425.0000000000,64.0000000000,64.0000000000
2026-01-20 17:47:09.888304,24.9941376239,12.5870000000,6.0000000000,35.7282326549,-78.6994868821,10.0000000000,0.0418830320,0.2019506616,-1.1700000000,4.8972475218,0.0000000000,-0.0226550921,172.16.0.1:,350.0000000000,158.1376239125,1371.0000000000,64.0000000000,64.0000000000
2026-01-20 17:47:10.534246,24.9947793998,12.5870000000,6.0000000000,35.7282259163,-78.6994522903,10.0000000000,0.0418341091,0.2020698669,-1.1700000000,4.8844120036,0.0000000000,-0.0223968221,172.16.0.1:,353.0000000000,158.7793998178,1408.0000000000,64.0000000000,64.0000000000
2026-01-20 17:47:11.177230,24.9950000000,12.5870000000,6.0000000000,35.7282192070,-78.6994177235,10.0000000000,0.0414043663,0.2006106893,-1.1700000000,4.8716322949,0.0000000000,-0.0225301505,172.16.0.1:,355.0000000000,159.4183852537,1647.0000000000,64.0000000000,64.0000000000
2026-01-20 17:47:11.417281,24.9950000000,12.5870000000,6.0000000000,35.7282167018,-78.6994047921,10.0000000000,0.0411688921,0.1997552165,-1.1700000000,4.8668605509,0.0000000000,-0.0226568073,172.16.0.1:,356.0000000000,159.6569724557,1686.0000000000,64.0000000000,64.0000000000
2026-01-20 17:47:11.714224,24.9950000000,12.5870000000,6.0000000000,35.7282136029,-78.6993887959,10.0000000000,0.0408776104,0.1986969964,-1.1700000000,4.8609579018,0.0000000000,-0.0228134817,172.16.0.1:,357.0000000000,159.9521049103,1781.0000000000,64.0000000000,64.0000000000
2026-01-20 17:47:12.205536,24.9950000000,12.5870000000,6.0000000000,35.7282085206,-78.6993626424,10.0000000000,0.0413494372,0.2008555405,-1.1700000000,4.8644032952,0.0000000000,-0.0228927126,172.16.0.1:,359.0000000000,160.4403295217,1868.0000000000,64.0000000000,64.0000000000
2026-01-20 17:47:14.615590,24.9950000000,12.5870000000,6.0000000000,35.7281835102,-78.6992341975,10.0000000000,0.0426646287,0.2045366713,-1.1700000000,4.8867112005,0.0000000000,-0.0222200473,172.16.0.1:,379.0000000000,162.8355600273,198.0000000000,64.0000000000,64.0000000000
2026-01-20 17:47:16.117733,24.9950000000,12.5870000000,6.0000000000,35.7281678265,-78.6991532646,10.0000000000,0.0415907158,0.2003859697,-1.1700000000,4.8833201448,0.0000000000,-0.0227555558,172.16.0.1:,380.0000000000,164.3339927598,1500.0000000000,64.0000000000,64.0000000000
2026-01-20 17:47:17.112231,24.9950000000,12.5870000000,6.0000000000,35.7281574741,-78.6990999138,10.0000000000,0.0419438674,0.2020820208,-1.1700000000,4.8732627460,0.0000000000,-0.0228351018,172.16.0.1:,383.0000000000,165.3262746027,1879.0000000000,64.0000000000,64.0000000000
2026-01-20 17:47:17.349223,24.9950000000,12.5870000000,6.0000000000,35.7281549925,-78.6990871748,10.0000000000,0.0417415313,0.2014414700,-1.1700000000,4.8756261945,0.0000000000,-0.0230049091,172.16.0.1:,384.0000000000,165.5626194489,1912.0000000000,64.0000000000,64.0000000000
2026-01-20 17:47:19.934331,24.9950000000,12.5870000000,6.0000000000,35.7281276194,-78.6989463303,10.0000000000,0.0422556284,0.2027430622,-1.1700000000,4.8800000000,0.0000000000,-0.0216403219,172.16.0.1:,395.0000000000,167.6221430318,2261.0000000000,64.0000000000,64.0000000000
2026-01-20 17:47:20.141584,24.9950000000,12.5870000000,6.0000000000,35.7281253581,-78.6989346831,10.0000000000,0.0421823958,0.2024482288,-1.1700000000,4.8800000000,0.0000000000,-0.0213710813,172.16.0.1:,397.0000000000,167.7357749869,2056.0000000000,64.0000000000,64.0000000000
2026-01-20 17:47:20.361043,24.9950000000,12.5870000000,6.0000000000,35.7281229636,-78.6989223498,10.0000000000,0.0421048503,0.2021360312,-1.1700000000,4.8800000000,0.0000000000,-0.0210859839,172.16.0.1:,399.0000000000,167.8560992494,1867.0000000000,64.0000000000,64.0000000000
2026-01-20 17:47:21.524289,24.9950000000,12.5870000000,6.0000000000,35.7281107646,-78.6988597964,10.0000000000,0.0413974624,0.1993261108,-1.1700000000,4.8800000000,0.0000000000,-0.0221986634,172.16.0.1:,405.0000000000,168.8047747705,1806.0000000000,64.0000000000,64.0000000000
2026-01-20 17:47:21.892059,24.9950000000,12.5870000000,6.0000000000,35.7281069577,-78.6988402514,10.0000000000,0.0414919576,0.1994804960,-1.1700000000,4.8770341059,0.0000000000,-0.0226077418,172.16.0.1:,407.0000000000,169.1482947036,1770.0000000000,64.0000000000,64.0000000000
2026-01-20 17:47:22.332358,24.9950000000,12.5870000000,6.0000000000,35.7281024081,-78.6988168030,10.0000000000,0.0422105740,0.2016795813,-1.1700000000,4.8682847177,0.0000000000,-0.0227742670,172.16.0.1:,409.0000000000,169.5857641175,1809.0000000000,64.0000000000,64.0000000000
2026-01-20 17:47:23.695294,24.9950000000,12.5870000000,6.0000000000,35.7280883095,-78.6987440473,10.0000000000,0.0425585174,0.2032638182,-1.1700000000,4.8882417110,0.0000000000,-0.0223052506,172.16.0.1:,424.0000000000,170.9413903681,105.0000000000,64.0000000000,64.0000000000
2026-01-20 17:47:24.895104,24.9958654285,12.5870000000,6.0000000000,35.7280757870,-78.6986798466,10.0000000000,0.0432434586,0.2033522314,-1.1700000000,4.8900000000,0.0000000000,-0.0223637770,172.16.0.1:,425.0000000000,172.1345715098,1105.0000000000,64.0000000000,64.0000000000
2026-01-20 17:47:25.307219,24.9954540031,12.5870000000,6.0000000000,35.7280714670,-78.6986576708,10.0000000000,0.0425353103,0.2023380454,-1.1700000000,4.8900000000,0.0000000000,-0.0225442316,172.16.0.1:,426.0000000000,172.5459968917,1314.0000000000,64.0000000000,64.0000000000
2026-01-20 17:47:25.610483,24.9951512465,12.5870000000,6.0000000000,35.7280682881,-78.6986413522,10.0000000000,0.0420142036,0.2015917340,-1.1700000000,4.8900000000,0.0000000000,-0.0226770231,172.16.0.1:,427.0000000000,172.8487534620,1413.0000000000,64.0000000000,64.0000000000
2026-01-20 17:47:25.956477,24.9951942591,12.5870000000,6.0000000000,35.7280646603,-78.6986227100,10.0000000000,0.0417308172,0.2010110936,-1.1680574092,4.8861148185,0.0000000000,-0.0227854252,172.16.0.1:,428.0000000000,173.1942590757,1554.0000000000,64.0000000000,64.0000000000
2026-01-20 17:47:26.506136,24.9957432544,12.5870000000,6.0000000000,35.7280588958,-78.6985930643,10.0000000000,0.0416656479,0.2004238034,-1.1625674557,4.8751349114,0.0000000000,-0.0229043026,172.16.0.1:,430.0000000000,173.7432544280,1697.0000000000,64.0000000000,64.0000000000
2026-01-20 17:47:27.055583,24.9962917686,12.5870000000,6.0000000000,35.7280531948,-78.6985636196,10.0000000000,0.0362981946,0.1797325201,-1.1483292571,4.8203993428,0.0000000000,-0.0238848956,172.16.0.1:,432.0000000000,174.2917685720,1842.0000000000,64.0000000000,64.0000000000
2026-01-20 17:47:27.325252,24.9965608637,12.5870000000,6.0000000000,35.7280504231,-78.6985492499,10.0000000000,0.0313759567,0.1609024743,-1.1375654514,4.7746531686,0.0000000000,-0.0247380120,172.16.0.1:,433.0000000000,174.5608637142,1912.0000000000,64.0000000000,64.0000000000
2026-01-20 17:47:28.070345,24.9960901700,12.5870000000,6.0000000000,35.7280431705,-78.6985117583,10.0000000000,0.0146679779,0.0940597729,-1.0381152966,4.3694284195,0.0000000000,-0.0266760582,172.16.0.1:,436.0000000000,175.3032766794,2049.0000000000,64.0000000000,64.0000000000
2026-01-20 17:47:29.720213,24.9921072506,12.5870000000,6.0000000000,35.7280310325,-78.6984490267,10.0000000000,-0.0286771483,-0.0918883527,-0.5093051165,2.2188292258,0.0000000000,-0.0271923724,172.16.0.1:,449.0000000000,176.9463746763,1055.0000000000,64.0000000000,64.0000000000
2026-01-20 17:47:30.620145,24.9945225475,12.5870000000,6.0000000000,35.7280283456,-78.6984355281,10.0000000000,-0.0306697173,-0.1094007550,-0.1620688218,0.7694158451,0.0000000000,-0.0273266208,172.16.0.1:,450.0000000000,177.8408491748,1747.0000000000,64.0000000000,64.0000000000
2026-01-20 17:47:32.147216,24.9919200954,12.5870000000,6.0000000000,35.7280278440,-78.6984331559,10.0000000000,0.0081620470,0.0314353075,0.0220015897,-0.0472073125,0.0000000000,-0.0275595745,172.16.0.1:,456.0000000000,179.3599682064,2045.0000000000,64.0000000000,64.0000000000
2026-01-20 17:47:34.395170,24.9937250227,12.5870000000,6.0000000000,35.7280203105,-78.6983934589,10.0000000000,0.0768553946,0.2882123827,-0.8116681794,3.2400610518,-0.0069721970,-0.0177836933,172.16.0.1:,467.0000000000,181.3027802990,2049.0000000000,64.0000000000,64.0000000000
2026-01-20 17:47:35.113105,24.9970683512,12.5870000000,6.0000000000,35.7280136981,-78.6983599142,10.0000000000,0.0622345917,0.2513736194,-1.0345567475,4.0498895161,-0.0032573875,-0.0214657176,172.16.0.1:,470.0000000000,181.6742612459,2148.0000000000,64.0000000000,64.0000000000
2026-01-20 17:47:35.354155,24.9981908900,12.5870000000,6.0000000000,35.7280114780,-78.6983486514,10.0000000000,0.0573255861,0.2390048257,-1.1093926668,4.3217933560,-0.0020101222,-0.0227019752,172.16.0.1:,471.0000000000,181.7989877780,2185.0000000000,64.0000000000,64.0000000000
2026-01-20 17:47:35.640943,24.9995264246,12.5870000000,6.0000000000,35.7280088366,-78.6983352515,10.0000000000,0.0514851227,0.2242891188,-1.1984283060,4.6452895117,-0.0005261949,-0.0241728061,172.16.0.1:,472.0000000000,181.9473805100,2263.0000000000,64.0000000000,64.0000000000
2026-01-20 17:47:35.979265,24.9992946977,12.5870000000,6.0000000000,35.7280053139,-78.6983177340,10.0000000000,0.0475812730,0.2173169736,-1.2300000000,4.7929141055,0.0000000000,-0.0249574420,172.16.0.1:,473.0000000000,182.2351007535,2398.0000000000,64.0000000000,64.0000000000
2026-01-20 17:47:36.271199,24.9984245484,12.5870000000,6.0000000000,35.7280021233,-78.6983019843,10.0000000000,0.0453200468,0.2151530039,-1.2300000000,4.8335210759,0.0000000000,-0.0252820166,172.16.0.1:,475.0000000000,182.5251505421,2278.0000000000,64.0000000000,64.0000000000
2026-01-20 17:47:36.739147,24.9970297648,12.5870000000,6.0000000000,35.7279970091,-78.6982767387,10.0000000000,0.0416954724,0.2116843242,-1.2300000000,4.8986109764,0.0000000000,-0.0258022851,172.16.0.1:,477.0000000000,182.9900784027,2334.0000000000,64.0000000000,64.0000000000
2026-01-20 17:47:37.090187,24.9973404280,12.5870000000,6.0000000000,35.7279931893,-78.6982575445,10.0000000000,0.0411622273,0.2103946582,-1.2231914409,4.9170213978,0.0000000000,-0.0260644424,172.16.0.1:,479.0000000000,183.3404279567,2277.0000000000,64.0000000000,64.0000000000
2026-01-20 17:47:37.279520,24.9975294134,12.5870000000,6.0000000000,35.7279911294,-78.6982471881,10.0000000000,0.0409091406,0.2097198045,-1.2194117313,4.9264706717,0.0000000000,-0.0262038131,172.16.0.1:,480.0000000000,183.5294134332,2262.0000000000,64.0000000000,64.0000000000
2026-01-20 17:47:37.640071,24.9978893026,12.5870000000,6.0000000000,35.7279872066,-78.6982274662,10.0000000000,0.0404271821,0.2084346659,-1.2122139487,4.9444651282,0.0000000000,-0.0264692197,172.16.0.1:,481.0000000000,183.8893025638,2422.0000000000,64.0000000000,64.0000000000
2026-01-20 17:47:38.139191,24.9980000000,12.5870000000,6.0000000000,35.7279817957,-78.6982001858,10.0000000000,0.0401294203,0.2056090001,-1.1984286055,4.9422857370,0.0000000000,-0.0264676033,172.16.0.1:,483.0000000000,184.3857131484,2517.0000000000,64.0000000000,64.0000000000
2026-01-20 17:47:38.263127,24.9980000000,12.5870000000,6.0000000000,35.7279804535,-78.6981934133,10.0000000000,0.0400816880,0.2048331220,-1.1947345261,4.9398230174,0.0000000000,-0.0264410257,172.16.0.1:,484.0000000000,184.5088491310,2440.0000000000,64.0000000000,64.0000000000
2026-01-20 17:47:38.385279,24.9980000000,12.5870000000,6.0000000000,35.7279791307,-78.6981867383,10.0000000000,0.0400346428,0.2040684127,-1.1910936230,4.9373957487,0.0000000000,-0.0264148307,172.16.0.1:,485.0000000000,184.6302125658,2361.0000000000,64.0000000000,64.0000000000
2026-01-20 17:47:39.114960,24.9976444617,12.5870000000,6.0000000000,35.7279713668,-78.6981471298,10.0000000000,0.0403855696,0.2024040622,-1.1800000000,4.9228892332,0.0000000000,-0.0264384276,172.16.0.1:,489.0000000000,185.3555383388,2275.0000000000,64.0000000000,64.0000000000
2026-01-20 17:47:39.364389,24.9973963948,12.5870000000,6.0000000000,35.7279687621,-78.6981336846,10.0000000000,0.0407304331,0.2028685180,-1.1800000000,4.9179278958,0.0000000000,-0.0265105802,172.16.0.1:,490.0000000000,185.6036052115,2322.0000000000,64.0000000000,64.0000000000
2026-01-20 17:47:40.239157,24.9965247468,12.5870000000,6.0000000000,35.7279595148,-78.6980863462,10.0000000000,0.0407987507,0.2011104857,-1.1800000000,4.9004949361,0.0000000000,-0.0266734077,172.16.0.1:,493.0000000000,186.4752531937,2589.0000000000,64.0000000000,64.0000000000
2026-01-20 17:47:42.088214,24.9956844949,12.5870000000,6.0000000000,35.7279399556,-78.6979871312,10.0000000000,0.0410360724,0.2020578611,-1.1731550506,4.8800000000,0.0000000000,-0.0259918741,172.16.0.1:,499.0000000000,188.3155050600,3215.0000000000,64.0000000000,64.0000000000
2026-01-20 17:47:43.470142,24.9970756878,12.5870000000,6.0000000000,35.7279255043,-78.6979131528,10.0000000000,0.0424355869,0.2035894631,-1.1800000000,4.8800000000,0.0000000000,-0.0264082519,172.16.0.1:,505.0000000000,189.6918959469,3381.0000000000,64.0000000000,64.0000000000
2026-01-20 17:47:45.183123,24.9980000000,12.5870000000,6.0000000000,35.7279073764,-78.6978210993,10.0000000000,0.0412097183,0.2023717942,-1.1900000000,4.8959775317,0.0000000000,-0.0258170121,172.16.0.1:,512.0000000000,191.4022468332,3662.0000000000,64.0000000000,64.0000000000
2026-01-20 17:47:49.224712,24.9980000000,12.5870000000,6.0000000000,35.7278647046,-78.6976039289,10.0000000000,0.0425810379,0.2028264523,-1.1800000000,4.8700000000,0.0000000000,-0.0263629084,172.16.0.1:,540.0000000000,195.4376618844,1978.0000000000,64.0000000000,64.0000000000
2026-01-20 17:47:54.220947,24.9980000000,12.5870000000,6.0000000000,35.7278117944,-78.6973352925,10.0000000000,0.0421448380,0.2021021209,-1.1800000000,4.8663260176,0.0000000000,-0.0258241840,172.16.0.1:,553.0000000000,199.6326017641,4319.0000000000,64.0000000000,64.0000000000
2026-01-20 17:47:55.157890,24.9970136306,12.5870000000,6.0000000000,35.7278016859,-78.6972838389,10.0000000000,0.0426828282,0.2035623389,-1.1800000000,4.8749318470,0.0000000000,-0.0254095353,172.16.0.1:,555.0000000000,200.4931846958,4842.0000000000,64.0000000000,64.0000000000
2026-01-20 17:47:56.029009,24.9962847842,12.5870000000,6.0000000000,35.7277922813,-78.6972358786,10.0000000000,0.0429016180,0.2035927371,-1.1828478416,4.8828478416,0.0000000000,-0.0255887481,172.16.0.1:,559.0000000000,201.2847841559,4892.0000000000,64.0000000000,64.0000000000
2026-01-20 17:47:57.863653,24.9980000000,12.5870000000,6.0000000000,35.7277728104,-78.6971373274,10.0000000000,0.0416208913,0.2005045974,-1.1800000000,4.8700000000,0.0000000000,-0.0262718390,172.16.0.1:,568.0000000000,203.1132944326,4878.0000000000,64.0000000000,64.0000000000
2026-01-20 17:47:58.403753,24.9980000000,12.5870000000,6.0000000000,35.7277671507,-78.6971084359,10.0000000000,0.0428316754,0.2021076643,-1.1800000000,4.8700000000,0.0000000000,-0.0260574086,172.16.0.1:,570.0000000000,203.6523156093,5002.0000000000,64.0000000000,64.0000000000
2026-01-20 17:47:59.345249,24.9980000000,12.5870000000,6.0000000000,35.7277572527,-78.6970580922,10.0000000000,0.0434448232,0.2026622075,-1.1800000000,4.8700000000,0.0000000000,-0.0260829925,172.16.0.1:,574.0000000000,204.5893634411,5123.0000000000,64.0000000000,64.0000000000
2026-01-20 17:48:00.000085,24.9980000000,12.5870000000,6.0000000000,35.7277503536,-78.6970231478,10.0000000000,0.0430483958,0.2028120831,-1.1824022885,4.8748045770,0.0000000000,-0.0261908037,172.16.0.1:,578.0000000000,205.2402288522,4966.0000000000,64.0000000000,64.0000000000
2026-01-20 17:48:04.071736,24.9980000000,12.5870000000,6.0000000000,35.7277073791,-78.6968048985,10.0000000000,0.0422644218,0.2011528745,-1.1900000000,4.8700000000,0.0000000000,-0.0269033346,172.16.0.1:,595.0000000000,209.2972243790,5566.0000000000,64.0000000000,64.0000000000
2026-01-20 17:48:05.360943,24.9985847803,12.5870000000,6.0000000000,35.7276938598,-78.6967360143,10.0000000000,0.0272876831,0.1455328785,-1.1432175736,4.7062615075,0.0000000000,-0.0285147304,172.16.0.1:,602.0000000000,210.5847803303,5423.0000000000,64.0000000000,64.0000000000
2026-01-20 17:48:08.252109,24.9944107614,12.5870000000,6.0000000000,35.7276738184,-78.6966338921,10.0000000000,-0.0317339778,-0.1089154314,-0.2607086280,1.1605116689,0.0000000000,-0.0304383276,172.16.0.1:,613.0000000000,213.4702538112,6058.0000000000,64.0000000000,64.0000000000
2026-01-20 17:48:09.593490,24.9935811815,12.5870000000,6.0000000000,35.7276725194,-78.6966278806,10.0000000000,-0.0100251569,-0.0357339977,0.0186900130,-0.0531364228,0.0000000000,-0.0321314256,172.16.0.1:,619.0000000000,214.8062728457,6176.0000000000,64.0000000000,64.0000000000
2026-01-20 17:48:10.435457,24.9910613859,12.5870000000,6.0000000000,35.7276725000,-78.6966296448,10.0000000000,0.1297769068,-0.0473127842,-0.2831023494,-0.2469307048,0.0000000000,-0.0362205651,172.16.0.1:,624.0000000000,215.6462046987,5998.0000000000,64.0000000000,64.0000000000
2026-01-20 17:48:12.272244,24.9952284866,12.5870000000,6.0000000000,35.7276389253,-78.6966459903,10.0000000000,0.2947940023,-0.0974942398,-3.3773412173,-1.1402195759,-0.0075430269,-0.0464161071,172.16.0.1:,634.0000000000,217.2456973131,5799.0000000000,64.0000000000,64.0000000000
2026-01-20 17:48:14.089536,24.9986596597,12.5870000000,6.0000000000,35.7275671973,-78.6966754879,10.0000000000,0.2091045301,-0.0573942767,-4.7642442366,-1.5434034028,0.0000000000,-0.0386126105,172.16.0.1:,644.0000000000,218.3403402815,5572.0000000000,64.0000000000,64.0000000000
2026-01-20 17:48:24.105022,24.9923534599,12.5870000000,6.0000000000,35.7273999691,-78.6965801607,10.0000000000,0.0707658822,0.2000385737,-1.8564654006,4.6690943028,0.0000000000,-0.0332866448,172.16.0.1:,695.0000000000,228.3232700307,5160.0000000000,64.0000000000,64.0000000000
2026-01-20 17:48:28.493330,24.9892504159,12.5870000000,6.0000000000,35.7273280432,-78.6963553633,10.0000000000,0.0331344218,0.1077656844,-1.6191985499,4.1629963749,0.0000000000,-0.0375095831,172.16.0.1:,726.0000000000,232.4582640219,3164.0000000000,64.0000000000,64.0000000000
2026-01-20 17:48:39.652627,11.7151768851,12.5870000000,6.0000000000,35.7273031000,-78.6962768899,10.0000000000,0.0012668851,0.0006521624,-0.0100000000,0.0000000000,1.4689914818,-0.0431731573,172.16.0.1:,759.0000000000,242.8991481754,7569.0000000000,64.0000000000,64.0000000000
2026-01-20 17:48:40.868088,10.3722745589,12.5870000000,6.0000000000,35.7273031000,-78.6962769112,10.0000000000,0.0012234127,0.0008280628,-0.0100000000,0.0000000000,0.5820404727,-0.0432407463,172.16.0.1:,765.0000000000,244.1122470454,7549.0000000000,64.0000000000,64.0000000000
2026-01-20 17:48:43.364153,9.1855553690,12.5870000000,6.0000000000,35.7273031000,-78.6962770601,10.0000000000,0.0012216652,0.0010990857,-0.0100000000,0.0100000000,0.5139912817,-0.0431576553,172.16.0.1:,778.0000000000,246.6008718254,7363.0000000000,64.0000000000,64.0000000000
2026-01-20 17:48:43.655380,9.0372313998,12.5870000000,6.0000000000,35.7273031000,-78.6962770892,10.0000000000,0.0011505478,0.0008267553,-0.0100000000,0.0100000000,0.5110829686,-0.0430764705,172.16.0.1:,780.0000000000,246.8917031376,7238.0000000000,64.0000000000,64.0000000000
2026-01-20 17:48:47.492220,7.1190267381,12.5870000000,6.0000000000,35.7273031000,-78.6962771707,10.0000000000,0.0008970268,0.0017733264,-0.0100000000,0.0170653346,0.4929346654,-0.0421312150,172.16.0.1:,801.0000000000,250.7065334569,6782.0000000000,64.0000000000,64.0000000000
2026-01-20 17:48:54.865989,3.4145361596,12.5870000000,6.0000000000,35.7273031000,-78.6962771000,10.0000000000,0.0012988133,0.0009347411,-0.0100000000,0.0100000000,0.4900000000,-0.0430890187,172.16.0.1:,838.0000000000,257.1047182442,6585.0000000000,64.0000000000,64.0000000000
2026-01-20 17:49:01.710994,0.0773259498,12.5870000000,6.0000000000,35.7273031000,-78.6962771000,10.0000000000,0.0006027481,0.0005542245,-0.0008351288,0.0008351288,-0.0598922698,-0.0432394776,172.16.0.1:,872.0000000000,263.9164871163,6462.0000000000,64.0000000000,64.0000000000
