time,Altitude,Bandwidth(MBits/sec),BatteryVolts,GPSFix,Interval(sec),Latency(sec),Latitude,Longitude,NumberOfSatellites,Pitch,Roll,VelocityX,VelocityY,VelocityZ,Yaw,num
2026-01-20 17:44:35.924172,-0.0170000000,13.6125986630,12.5870000000,6.0000000000,0.1059160000,0.0208460000,35.7273024000,-78.6962748000,10.0000000000,0.0010453987,0.0012975531,-0.0200000000,0.0200000000,0.0000000000,-0.0209048078,12.9471562475
2026-01-20 17:44:36.031167,-0.0170000000,13.4755731680,12.5870000000,6.0000000000,0.1069930000,0.0151160000,35.7273024000,-78.6962748000,10.0000000000,0.0010549801,0.0013073380,-0.0189196529,0.0189196529,0.0000000000,-0.0208264037,13.0540173537
2026-01-20 17:44:36.135185,-0.0170000000,13.2311952010,12.5870000000,6.0000000000,0.1040160000,0.0150930000,35.7273024000,-78.6962748000,10.0000000000,0.0010704287,0.0013236637,-0.0168415077,0.0168415077,0.0000000000,-0.0207495681,13.1579246166
2026-01-20 17:44:36.242138,-0.0170000000,12.8680984750,12.5870000000,6.0000000000,0.1069510000,0.0154360000,35.7273024000,-78.6962748000,10.0000000000,0.0010863131,0.0013404501,-0.0147047189,0.0147047189,0.0000000000,-0.0206705643,13.2647640529
2026-01-20 17:44:36.347260,-0.0170000000,12.4691534200,12.5870000000,6.0000000000,0.1051170000,0.0144290000,35.7273024000,-78.6962748000,10.0000000000,0.0011019256,0.0013569490,-0.0126045197,0.0126045197,0.0000000000,-0.0205929134,13.3697740135
2026-01-20 17:44:36.451265,-0.0170000000,14.4929810390,12.5870000000,6.0000000000,0.1040040000,0.0148370000,35.7273024000,-78.6962748000,10.0000000000,0.0011173722,0.0013732727,-0.0105266302,0.0105266302,0.0000000000,-0.0205160873,13.4736684900
2026-01-20 17:44:36.554358,-0.0170000000,13.3486193150,12.5870000000,6.0000000000,0.1031010000,0.0111360000,35.7273024000,-78.6962748000,10.0000000000,0.0011326833,0.0013894533,-0.0084669638,0.0084669638,0.0000000000,-0.0204399350,13.5766518089
2026-01-20 17:44:36.658235,-0.0170000000,11.3568561000,12.5870000000,6.0000000000,0.1038710000,0.0158440000,35.7273024000,-78.6962748000,10.0000000000,0.0011481109,0.0014057569,-0.0063916367,0.0063916367,0.0000000000,-0.0203632036,13.6804181659
2026-01-20 17:44:36.856896,-0.0170000000,5.9385329460,12.5870000000,6.0000000000,0.1986430000,0.0214420000,35.7273024000,-78.6962748000,10.0000000000,0.0011776156,0.0014369369,-0.0024226411,0.0024226411,0.0000000000,-0.0202164574,13.8788679448
2026-01-20 17:44:36.963219,-0.0170000000,22.8013465480,12.5870000000,6.0000000000,0.1063460000,0.0734500000,35.7273024000,-78.6962748000,10.0000000000,0.0011934065,0.0014536244,-0.0002984444,0.0002984444,0.0000000000,-0.0201379192,13.9850777796
2026-01-20 17:44:37.066583,-0.0170000000,16.5360040370,12.5870000000,6.0000000000,0.1030440000,0.0363740000,35.7273024000,-78.6962748000,10.0000000000,0.0012107252,0.0014716283,-0.0008830800,0.0008830800,0.0000000000,-0.0200610649,14.0883079989
2026-01-20 17:44:37.171072,-0.0170000000,13.7565071370,12.5870000000,6.0000000000,0.1048080000,0.0162990000,35.7273024000,-78.6962748000,10.0000000000,0.0012285683,0.0014901323,-0.0019265754,0.0019265754,0.0000000000,-0.0199832885,14.1926575412
2026-01-20 17:44:37.275185,-0.0170000000,13.2197567860,12.5870000000,6.0000000000,0.1041060000,0.0155180000,35.7273024000,-78.6962748000,10.0000000000,0.0012463472,0.0015085697,-0.0029663152,0.0029663152,0.0000000000,-0.0199057920,14.2966315213
2026-01-20 17:44:37.379084,-0.0170000000,12.6135073230,12.5870000000,6.0000000000,0.1039140000,0.0265690000,35.7273024000,-78.6962748000,10.0000000000,0.0012640896,0.0015269693,-0.0040039203,0.0040039203,0.0000000000,-0.0198284546,14.4003920266
2026-01-20 17:44:37.482242,-0.0170000000,10.8009966170,12.5870000000,6.0000000000,0.1031490000,0.0153570000,35.7273024000,-78.6962748000,10.0000000000,0.0012817055,0.0015452376,-0.0050341240,0.0050341240,0.0000000000,-0.0197516689,14.5034124008
2026-01-20 17:44:37.585271,-0.0170000000,14.6311273320,12.5870000000,6.0000000000,0.1030220000,0.0210270000,35.7273024000,-78.6962748000,10.0000000000,0.0012992993,0.0015634830,-0.0060630392,0.0060630392,0.0000000000,-0.0196749793,14.6063039232
2026-01-20 17:44:37.688131,-0.0170000000,13.3791145760,12.5870000000,6.0000000000,0.1028660000,0.0166820000,35.7273024000,-78.6962748000,10.0000000000,0.0013168643,0.0015816986,-0.0070902671,0.0070902671,0.0000000000,-0.0195984154,14.7090267109
2026-01-20 17:44:37.856901,-0.0170000000,4.2715965990,12.5870000000,6.0000000000,0.1687650000,0.0382470000,35.7273024000,-78.6962748000,10.0000000000,0.0013456844,0.0016115861,-0.0087757157,0.0087757157,0.0000000000,-0.0194727913,14.8775715722
2026-01-20 17:44:37.961360,-0.0170000000,19.4522840650,12.5870000000,6.0000000000,0.1044410000,0.0774340000,35.7273024000,-78.6962748000,10.0000000000,0.0013635224,0.0016300848,-0.0098189095,0.0098189095,0.0000000000,-0.0193950374,14.9818909469
2026-01-20 17:44:38.068187,-0.0170000000,14.1074817960,12.5870000000,6.0000000000,0.1068460000,0.0619360000,35.7273024000,-78.6962748000,10.0000000000,0.0013674656,0.0016325186,-0.0100000000,0.0100000000,0.0000000000,-0.0193161222,15.0880378904
2026-01-20 17:44:38.189001,-0.0170000000,4.8819215680,12.5870000000,6.0000000000,0.1208180000,0.0622600000,35.7273024000,-78.6962748000,10.0000000000,0.0013686190,0.0016314597,-0.0100000000,0.0100000000,0.0000000000,-0.0192270135,15.2079585785
2026-01-20 17:44:38.296467,-0.0170000000,14.6360582520,12.5870000000,6.0000000000,0.1074650000,0.1140610000,35.7273024000,-78.6962748000,10.0000000000,0.0013696450,0.0016305178,-0.0100000000,0.0100000000,0.0000000000,-0.0191477500,15.3146298767
2026-01-20 17:44:38.400568,-0.0170000000,13.8540597670,12.5870000000,6.0000000000,0.1040700000,0.1096220000,35.7273024000,-78.6962748000,10.0000000000,0.0013706388,0.0016296053,-0.0100000000,0.0100000000,0.0000000000,-0.0190709683,15.4179611933
2026-01-20 17:44:38.507765,-0.0170000000,14.0702144140,12.5870000000,6.0000000000,0.1071290000,0.1011390000,35.7273024000,-78.6962748000,10.0000000000,0.0013716622,0.0016286658,-0.0100000000,0.0100000000,0.0000000000,-0.0189919033,15.5243654251
2026-01-20 17:44:38.616022,-0.0170000000,6.6535852400,12.5870000000,6.0000000000,0.1083470000,0.1011240000,35.7273024000,-78.6962748000,10.0000000000,0.0013726957,0.0016277169,-0.0100000000,0.0100000000,0.0000000000,-0.0189120563,15.6318219137
2026-01-20 17:44:38.721359,-0.0170000000,8.7234281260,12.5870000000,6.0000000000,0.1051770000,0.1585600000,35.7273024000,-78.6962748000,10.0000000000,0.0013737013,0.0016267936,-0.0100000000,0.0100000000,0.0000000000,-0.0188343630,15.7363800586
2026-01-20 17:44:38.854336,-0.0170000000,1.4766568530,12.5870000000,6.0000000000,0.1331440000,0.2096930000,35.7273024000,-78.6962748000,10.0000000000,0.0013749708,0.0016256281,-0.0100000000,0.0100000000,0.0000000000,-0.0187362834,15.8683736216
2026-01-20 17:44:39.006046,-0.0170000000,2.5929691980,12.5870000000,6.0000000000,0.1516470000,0.3081120000,35.7273023981,-78.6962747981,10.0000000000,0.0013736746,0.0016217439,-0.0100000000,0.0100000000,0.0000000000,-0.0186252708,16.0189898705
2026-01-20 17:44:39.144961,-0.0170000000,2.8295231310,12.5870000000,6.0000000000,0.1389690000,0.4511680000,35.7273023843,-78.6962747843,10.0000000000,0.0013550430,0.0016019506,-0.0100000000,0.0100000000,0.0000000000,-0.0185292384,16.1570824498
2026-01-20 17:44:39.259491,-0.0170000000,4.5775752180,12.5870000000,6.0000000000,0.1145340000,0.5549770000,35.7273023729,-78.6962747729,10.0000000000,0.0013396819,0.0015856318,-0.0100000000,0.0100000000,0.0000000000,-0.0184500634,16.2709343848
2026-01-20 17:44:39.364605,-0.0170000000,3.7409595570,12.5870000000,6.0000000000,0.1051110000,0.6262780000,35.7273023625,-78.6962747625,10.0000000000,0.0013255838,0.0015706547,-0.0100000000,0.0100000000,0.0000000000,-0.0183773979,16.3754258794
2026-01-20 17:44:39.557289,-0.0170000000,2.3838702970,12.5870000000,6.0000000000,0.1924400000,0.7119470000,35.7273023433,-78.6962747433,10.0000000000,0.0012997405,0.0015432001,-0.0100000000,0.0100000000,0.0000000000,-0.0182441949,16.5669690618
2026-01-20 17:44:40.048808,-0.0170000000,0.6664917450,12.5870000000,6.0000000000,0.4916490000,0.8330130000,35.7273023000,-78.6962747000,10.0000000000,0.0012314419,0.0014715380,-0.0100000000,0.0100000000,0.0000000000,-0.0179071680,17.0555193438
2026-01-20 17:44:40.168849,-0.0170000000,0.5464293160,12.5870000000,6.0000000000,0.1199350000,0.9682680000,35.7273023000,-78.6962747000,10.0000000000,0.0012102428,0.0014509384,-0.0100000000,0.0100000000,0.0000000000,-0.0178301129,17.1747239718
2026-01-20 17:44:40.388610,-0.0170000000,0.5958874530,12.5870000000,6.0000000000,0.2199610000,1.0209650000,35.7273023000,-78.6962747000,10.0000000000,0.0011714333,0.0014132264,-0.0100000000,0.0100000000,0.0000000000,-0.0176890467,17.3929540356
2026-01-20 17:44:40.508589,-0.0170000000,0.5461242310,12.5870000000,6.0000000000,0.1200020000,1.0582530000,35.7273023000,-78.6962747000,10.0000000000,0.0011502451,0.0013926374,-0.0100000000,0.0100000000,0.0000000000,-0.0176120313,17.5120971432
2026-01-20 17:44:40.903570,-0.0170000000,0.4977707560,12.5870000000,6.0000000000,0.3949770000,1.0269000000,35.7273023000,-78.6962747000,10.0000000000,0.0010804919,0.0013248569,-0.0100000000,0.0100000000,0.0000000000,-0.0173584904,17.9043261536
2026-01-20 17:44:41.019505,-0.0170000000,0.0325075660,12.5870000000,6.0000000000,2.0160230000,1.1247370000,35.7273023000,-78.6962747000,10.0000000000,0.0010612324,0.0013059790,-0.0100000000,0.0100000000,0.0000000000,-0.0172853739,18.0194570941
2026-01-20 17:44:41.158989,-0.0170000000,0.4707978330,12.5870000000,6.0000000000,0.1392020000,2.1648490000,35.7273023000,-78.6962747000,10.0000000000,0.0010452472,0.0012892853,-0.0100000000,0.0100000000,0.0000000000,-0.0172051154,18.1579957334
2026-01-20 17:44:41.291421,-0.0170000000,0.1689760260,12.5870000000,6.0000000000,0.3878420000,0.8901780000,35.7273023000,-78.6962747000,10.0000000000,0.0010300702,0.0012734356,-0.0100000000,0.0100000000,0.0000000000,-0.0171289148,18.2895298901
2026-01-20 17:44:41.492948,-0.0170000000,0.9758576870,12.5870000000,6.0000000000,0.2014720000,0.8410900000,35.7273023000,-78.6962747000,10.0000000000,0.0010069748,0.0012493165,-0.0100000000,0.0100000000,0.0000000000,-0.0170129572,18.4896908396
2026-01-20 17:44:41.626321,-0.0170000000,0.1402001510,12.5870000000,6.0000000000,0.4674460000,2.4556720000,35.7273023000,-78.6962747000,10.0000000000,0.0009916899,0.0012333542,-0.0100000000,0.0100000000,0.0000000000,-0.0169362152,18.6221596731
2026-01-20 17:44:41.899257,-0.0170000000,0.3226284450,12.5870000000,6.0000000000,0.4062630000,0.8643550000,35.7273023000,-78.6962747000,10.0000000000,0.0009604108,0.0012006887,-0.0100000000,0.0100000000,0.0000000000,-0.0167791691,18.8932457137
2026-01-20 17:44:42.010528,-0.0170000000,1.7654062690,12.5870000000,6.0000000000,0.1113670000,0.8928290000,35.7273023000,-78.6962747000,10.0000000000,0.0009478739,0.0011875789,-0.0100000000,0.0100000000,0.0000000000,-0.0167152150,19.0037627052
2026-01-20 17:44:42.262922,-0.0170000000,0.2598737430,12.5870000000,6.0000000000,0.2521840000,0.9207290000,35.7273023000,-78.6962747000,10.0000000000,0.0009332752,0.0011711798,-0.0100000000,0.0100000000,0.0000000000,-0.0165746941,19.2544691819
2026-01-20 17:44:42.416350,-0.0170000000,0.0829248420,12.5870000000,6.0000000000,0.7903060000,3.0620430000,35.7273023000,-78.6962747000,10.0000000000,0.0009244008,0.0011612109,-0.0100000000,0.0100000000,0.0000000000,-0.0164892728,19.4068713298
2026-01-20 17:44:42.437621,-0.0170000000,0.7494068070,12.5870000000,6.0000000000,0.1749010000,0.9775550000,35.7273023000,-78.6962747000,10.0000000000,0.0009231705,0.0011598288,-0.0100000000,0.0100000000,0.0000000000,-0.0164774301,19.4280001516
2026-01-20 17:44:42.567165,-0.0170000000,1.0125925120,12.5870000000,6.0000000000,0.1294420000,1.0161420000,35.7273023000,-78.6962747000,10.0000000000,0.0009156775,0.0011514118,-0.0100000000,0.0100000000,0.0000000000,-0.0164053062,19.5566779562
2026-01-20 17:44:42.617361,-0.0170000000,0.6520508420,12.5870000000,6.0000000000,0.2010150000,3.5386840000,35.7273023000,-78.6962747000,10.0000000000,0.0009127741,0.0011481504,-0.0100000000,0.0100000000,0.0000000000,-0.0163773595,19.6065383138
2026-01-20 17:44:42.725119,-0.0170000000,0.6082283830,12.5870000000,6.0000000000,0.1077490000,3.6870750000,35.7273023000,-78.6962747000,10.0000000000,0.0009065413,0.0011411489,-0.0100000000,0.0100000000,0.0000000000,-0.0163173649,19.7135759228
2026-01-20 17:44:42.871337,-0.0170000000,0.2154669610,12.5870000000,6.0000000000,0.3041580000,1.0012760000,35.7273023000,-78.6962747000,10.0000000000,0.0008980839,0.0011316485,-0.0100000000,0.0100000000,0.0000000000,-0.0162359577,19.8588162927
2026-01-20 17:44:43.008859,-0.0170000000,1.4281833170,12.5870000000,6.0000000000,0.1376630000,0.9405840000,35.7273023000,-78.6962747000,10.0000000000,0.0008901295,0.0011227131,-0.0100000000,0.0100000000,0.0000000000,-0.0161593921,19.9954187405
2026-01-20 17:44:43.265818,-0.0170000000,0.5100970990,12.5870000000,6.0000000000,0.2569550000,0.8465330000,35.7273023000,-78.6962747000,10.0000000000,0.0008829747,0.0011146405,-0.0100000000,0.0100000000,0.0000000000,-0.0160197535,20.2508819533
2026-01-20 17:44:43.471569,-0.0170000000,0.6370139970,12.5870000000,6.0000000000,0.2057600000,0.7999670000,35.7273023000,-78.6962747000,10.0000000000,0.0008773585,0.0011083028,-0.0100000000,0.0100000000,0.0000000000,-0.0159079931,20.4554381032
2026-01-20 17:44:43.544317,-0.0170000000,0.0799993160,12.5870000000,6.0000000000,0.8192070000,4.1329770000,35.7273023000,-78.6962747000,10.0000000000,0.0008753727,0.0011060620,-0.0100000000,0.0100000000,0.0000000000,-0.0158684776,20.5277637442
2026-01-20 17:44:43.578484,-0.0170000000,0.6130073240,12.5870000000,6.0000000000,0.1069090000,0.7546900000,35.7273023000,-78.6962747000,10.0000000000,0.0008744401,0.0011050095,-0.0100000000,0.0100000000,0.0000000000,-0.0158499186,20.5617324029
2026-01-20 17:44:43.983723,-0.0170000000,0.3234516780,12.5870000000,6.0000000000,0.4052290000,0.7725900000,35.7273023000,-78.6962747000,10.0000000000,0.0008633786,0.0010925271,-0.0100000000,0.0100000000,0.0000000000,-0.0156297994,20.9646185363
2026-01-20 17:44:44.340478,-0.0109441558,0.3673851500,12.5870000000,6.0000000000,0.3567700000,0.8213090000,35.7273023000,-78.6962747000,10.0000000000,0.0008652151,0.0010945169,-0.0100000000,0.0100000000,0.0000000000,-0.0154447338,21.3187286402
2026-01-20 17:44:44.924838,0.0000743933,0.1122082260,12.5870000000,6.0000000000,0.5840570000,0.7695190000,35.7273023000,-78.6962747000,10.0000000000,0.0008703240,0.0011001320,-0.0100000000,0.0100000000,0.0000000000,-0.0151431809,21.8986522810
2026-01-20 17:44:45.074314,0.0020000000,0.0428342390,12.5870000000,6.0000000000,1.5299910000,5.2675890000,35.7273023000,-78.6962747000,10.0000000000,0.0008780975,0.0011075806,-0.0095299214,0.0095299214,0.0000000000,-0.0150664063,22.0470078563
2026-01-20 17:44:45.080583,0.0020000000,2.5208092930,12.5870000000,6.0000000000,0.1559880000,0.7956680000,35.7273023000,-78.6962747000,10.0000000000,0.0008790084,0.0011084368,-0.0094676892,0.0094676892,0.0000000000,-0.0150632191,22.0532310801
2026-01-20 17:44:45.708558,0.0020000000,0.2087034060,12.5870000000,6.0000000000,0.6280300000,0.8222800000,35.7273023000,-78.6962747000,10.0000000000,0.0009702573,0.0011942037,-0.0032337206,0.0032337206,0.0000000000,-0.0147439463,22.6766279418
2026-01-20 17:45:11.378742,24.9663432567,0.0025530110,12.5870000000,6.0000000000,25.6700860000,0.8206500000,35.7273607445,-78.6964555216,10.0000000000,-0.0570538548,-0.1962522299,1.8400000000,-4.6858581418,-0.0180472861,0.0042064216,47.1952713920
2026-01-20 17:45:11.894312,24.9717395771,0.1270877980,12.5870000000,6.0000000000,0.5156750000,0.8909490000,35.7273698283,-78.6964838973,10.0000000000,-0.0562426525,-0.1939922128,1.8400000000,-4.6993489428,-0.0135503524,0.0048473301,47.6449647593
2026-01-20 17:45:13.306348,24.9840263424,0.0464126120,12.5870000000,6.0000000000,1.4120300000,0.9090730000,35.7273937558,-78.6965587741,10.0000000000,-0.0547322755,-0.1904084105,1.8299281570,-4.6798084186,-0.0099760523,0.0050388961,49.0023947669
2026-01-20 17:45:13.424543,24.9849261853,1.1090502940,12.5870000000,6.0000000000,0.1181840000,0.9306970000,35.7273956618,-78.6965647212,10.0000000000,-0.0534940094,-0.1871054750,1.8274740400,-4.6732641067,-0.0091580133,0.0048193496,49.0841986664
2026-01-20 17:45:13.676351,24.9868432524,0.2602514510,12.5870000000,6.0000000000,0.2518180000,0.9876040000,35.7273997225,-78.6965773913,10.0000000000,-0.0508559498,-0.1800687475,1.8222456752,-4.6593218004,-0.0074152251,0.0043516176,49.2584774945
2026-01-20 17:45:14.043473,24.9896382286,0.1785187000,12.5870000000,6.0000000000,0.3671100000,0.9569670000,35.7274056428,-78.6965958636,10.0000000000,-0.0470098071,-0.1698095942,1.8146230129,-4.6389947011,-0.0048743376,0.0036696906,49.5125662366
2026-01-20 17:45:14.392575,24.9922960159,0.1877451160,12.5870000000,6.0000000000,0.3490690000,0.9050460000,35.7274112725,-78.6966134291,10.0000000000,-0.0433524487,-0.1600540019,1.8073745020,-4.6196653386,-0.0024581673,0.0030212354,49.7541832677
2026-01-20 17:45:15.273125,24.9965672741,0.0744222390,12.5870000000,6.0000000000,0.8805970000,0.4600640000,35.7274247319,-78.6966555405,10.0000000000,-0.0148848274,-0.0823126011,1.5962543695,-4.0932480473,0.0000000000,0.0000446364,50.5224246935
2026-01-20 17:45:15.388134,24.9969103595,0.0021619180,12.5870000000,6.0000000000,30.3138270000,3.0840890000,35.7274264244,-78.6966608469,10.0000000000,-0.0094676322,-0.0674672304,1.5516532624,-3.9823170885,0.0000000000,-0.0004625406,50.6367865067
2026-01-20 17:45:15.401632,24.9969506261,4.0844486690,12.5870000000,6.0000000000,0.1283620000,0.0499650000,35.7274266231,-78.6966614697,10.0000000000,-0.0088318380,-0.0657248896,1.5464186116,-3.9692975724,0.0000000000,-0.0005220658,50.6502086882
2026-01-20 17:45:15.552769,24.9974014866,1.2997415170,12.5870000000,6.0000000000,0.1512670000,0.1628640000,35.7274288473,-78.6966684430,10.0000000000,-0.0017129132,-0.0462160714,1.4878067447,-3.8235193394,0.0000000000,-0.0011885647,50.8004955264
2026-01-20 17:45:15.660551,24.9977230133,1.8264480470,12.5870000000,6.0000000000,0.1076450000,0.2886120000,35.7274304335,-78.6966734159,10.0000000000,0.0033638783,-0.0323035489,1.4460082661,-3.7195590207,0.0000000000,-0.0016638718,50.9076711126
2026-01-20 17:45:15.855850,24.9983067085,2.3472058780,12.5870000000,6.0000000000,0.1954460000,0.3662540000,35.7274328735,-78.6966811045,10.0000000000,0.0108634428,-0.0101890116,1.3537701104,-3.4909588183,0.0000000000,-0.0019956896,51.1022361630
2026-01-20 17:45:15.975228,24.9986641022,4.9639710150,12.5870000000,6.0000000000,0.1188210000,0.5117630000,35.7274341244,-78.6966850715,10.0000000000,0.0145060833,0.0016141769,1.2882479366,-3.3289403524,0.0000000000,-0.0019052115,51.2213673880
2026-01-20 17:45:16.066113,24.9989361941,0.1933295180,12.5870000000,6.0000000000,0.6779720000,0.4037300000,35.7274350767,-78.6966880918,10.0000000000,0.0172793082,0.0106002122,1.2383644186,-3.2055920169,0.0000000000,-0.0018363284,51.3120646934
2026-01-20 17:45:16.100374,24.9990387647,3.6524549960,12.5870000000,6.0000000000,0.1256010000,0.5895460000,35.7274354357,-78.6966892303,10.0000000000,0.0183247316,0.0139876807,1.2195598133,-3.1590933565,0.0000000000,-0.0018103616,51.3462548849
2026-01-20 17:45:16.208217,24.9993616253,3.6425077810,12.5870000000,6.0000000000,0.1079520000,0.6831470000,35.7274365657,-78.6966928140,10.0000000000,0.0216154033,0.0246503904,1.1603686957,-3.0127298658,0.0000000000,-0.0017286259,51.4538750987
2026-01-20 17:45:16.222069,24.9994030951,0.4201672050,12.5870000000,6.0000000000,0.1559760000,0.8789660000,35.7274367108,-78.6966932744,10.0000000000,0.0220380737,0.0260199622,1.1527658923,-2.9939302064,0.0000000000,-0.0017181274,51.4676983777
2026-01-20 17:45:16.363392,24.9998261880,2.9564477670,12.5870000000,6.0000000000,0.1551700000,0.7452020000,35.7274381917,-78.6966979707,10.0000000000,0.0263503360,0.0399929155,1.0751988624,-2.8021280962,0.0000000000,-0.0016110168,51.6087293410
2026-01-20 17:45:16.381013,24.9998789418,0.8282904880,12.5870000000,6.0000000000,0.1582440000,1.0295680000,35.7274383763,-78.6966985563,10.0000000000,0.0268880145,0.0417351463,1.0655273445,-2.7782130699,0.0000000000,-0.0015976616,51.6263139192
2026-01-20 17:45:16.478267,25.0001701005,0.5712044490,12.5870000000,6.0000000000,0.1147330000,0.7905150000,35.7274393954,-78.6967017881,10.0000000000,0.0298555729,0.0513508773,1.0121482427,-2.6462211091,0.0000000000,-0.0015239516,51.7233668315
2026-01-20 17:45:16.578131,25.0004690736,0.3313262450,12.5870000000,6.0000000000,0.1977990000,1.1966010000,35.7274404418,-78.6967051067,10.0000000000,0.0329027770,0.0612246829,0.9573365107,-2.5106866447,0.0000000000,-0.0014482633,51.8230245260
2026-01-20 17:45:16.583271,25.0004844616,0.6232382980,12.5870000000,6.0000000000,0.1051540000,0.8472930000,35.7274404956,-78.6967052775,10.0000000000,0.0330596155,0.0617328842,0.9545153703,-2.5037107338,0.0000000000,-0.0014443677,51.8281538722
2026-01-20 17:45:16.689215,25.0008016370,0.5902229910,12.5870000000,6.0000000000,0.1110360000,1.3435190000,35.7274416057,-78.6967087982,10.0000000000,0.0362923417,0.0722078343,0.8963665487,-2.3599245569,0.0000000000,-0.0013640713,51.9338790023
2026-01-20 17:45:16.712401,25.0008710510,1.0150941350,12.5870000000,6.0000000000,0.1291230000,0.8772640000,35.7274418487,-78.6967095687,10.0000000000,0.0369998258,0.0745002832,0.8836406453,-2.3284568685,0.0000000000,-0.0013464984,51.9570170085
2026-01-20 17:45:16.864665,25.0013269723,0.4304470910,12.5870000000,6.0000000000,0.1522510000,0.9233120000,35.7274428559,-78.6967127765,10.0000000000,0.0394872952,0.0835779391,0.7913358148,-2.0934349525,0.0000000000,-0.0011771268,52.1089907701
2026-01-20 17:45:17.322653,25.0026984013,0.2862152770,12.5870000000,6.0000000000,0.4579490000,0.6810880000,35.7274451873,-78.6967202280,10.0000000000,0.0444080435,0.1037904940,0.5033357183,-1.3528632755,0.0000000000,-0.0006036500,52.5661337805
2026-01-20 17:45:17.433431,25.0030301226,3.5488168080,12.5870000000,6.0000000000,0.1108020000,0.0795390000,35.7274457512,-78.6967220303,10.0000000000,0.0455982742,0.1086795074,0.4336742466,-1.1737337769,0.0000000000,-0.0004649374,52.6767075451
2026-01-20 17:45:17.541978,25.0033551632,3.0180059870,12.5870000000,6.0000000000,0.1085750000,0.1738440000,35.7274463038,-78.6967237964,10.0000000000,0.0467645340,0.1134700574,0.3654157373,-0.9982118959,0.0000000000,-0.0003290184,52.7850543853
2026-01-20 17:45:17.651392,25.0036827993,2.3984336400,12.5870000000,6.0000000000,0.1092980000,0.2574510000,35.7274468608,-78.6967255765,10.0000000000,0.0479401072,0.1182988629,0.2966121413,-0.8212883633,0.0000000000,-0.0001920141,52.8942664424
2026-01-20 17:45:17.877389,25.0040000000,1.1600010620,12.5870000000,6.0000000000,0.2259860000,0.3693310000,35.7274474719,-78.6967275517,10.0000000000,0.0450157715,0.1130922642,0.1976406706,-0.5589144803,0.0000000000,-0.0003926537,53.1198493680
2026-01-20 17:45:17.997540,25.0040000000,2.1795204360,12.5870000000,6.0000000000,0.1202760000,0.5227700000,35.7274475439,-78.6967278035,10.0000000000,0.0409504994,0.1032038353,0.1652589872,-0.4677660380,0.0000000000,-0.0007261642,53.2397815290
2026-01-20 17:45:18.046016,25.0040000000,0.0483004630,12.5870000000,6.0000000000,1.3568400000,1.0523960000,35.7274475729,-78.6967279052,10.0000000000,0.0393103326,0.0992142691,0.1521943364,-0.4309914654,0.0000000000,-0.0008607217,53.2881691244
2026-01-20 17:45:18.151070,25.0040000000,2.1343199000,12.5870000000,6.0000000000,0.1535290000,0.6453010000,35.7274476358,-78.6967281254,10.0000000000,0.0357558656,0.0905683304,0.1238814411,-0.3512959082,0.0000000000,-0.0011523263,53.3930316997
2026-01-20 17:45:18.302616,25.0040000000,2.1623333770,12.5870000000,6.0000000000,0.1515400000,0.7597430000,35.7274477266,-78.6967284430,10.0000000000,0.0306283512,0.0780960876,0.0830385301,-0.2363306774,0.0000000000,-0.0015729820,53.5443017403
2026-01-20 17:45:18.449952,25.0040000000,3.1139408910,12.5870000000,6.0000000000,0.1473220000,0.8708580000,35.7274478148,-78.6967287519,10.0000000000,0.0256432868,0.0659703422,0.0433302959,-0.1245593514,0.0000000000,-0.0019819513,53.6913692745
2026-01-20 17:45:18.573381,25.0040000000,2.1253080810,12.5870000000,6.0000000000,0.1233440000,0.9903180000,35.7274478887,-78.6967290106,10.0000000000,0.0214671018,0.0558121274,0.0100651432,-0.0309241068,0.0000000000,-0.0023245610,53.8145735437
2026-01-20 17:45:18.904121,25.0035658306,0.5942511710,12.5870000000,6.0000000000,0.3308500000,1.0552580000,35.7274479276,-78.6967290816,10.0000000000,0.0122976808,0.0311941612,-0.0414472313,0.1157889253,0.0000000000,-0.0028639403,54.1447231329
2026-01-20 17:45:19.067908,25.0030753236,0.4006308760,12.5870000000,6.0000000000,0.1635820000,1.0300970000,35.7274478459,-78.6967287219,10.0000000000,0.0090393118,0.0206540462,-0.0430822547,0.1223290190,0.0000000000,-0.0028907614,54.3082254742
2026-01-20 17:45:19.198893,25.0026830517,0.1136898460,12.5870000000,6.0000000000,1.1528910000,1.1092260000,35.7274477805,-78.6967284342,10.0000000000,0.0064335048,0.0122248273,-0.0443898278,0.1275593111,0.0000000000,-0.0029122109,54.4389827784
2026-01-20 17:45:19.209932,25.0026499923,0.9215236860,12.5870000000,6.0000000000,0.1422340000,1.0451510000,35.7274477750,-78.6967284100,10.0000000000,0.0062138961,0.0115144409,-0.0445000257,0.1280001027,0.0000000000,-0.0029140186,54.4500025683
2026-01-20 17:45:19.381923,25.0021349160,0.7161113020,12.5870000000,6.0000000000,0.1830330000,1.9028290000,35.7274476892,-78.6967280323,10.0000000000,0.0027923166,0.0004463753,-0.0462169468,0.1348677873,0.0000000000,-0.0029421832,54.6216946827
2026-01-20 17:45:19.418390,25.0020257053,0.3145582040,12.5870000000,6.0000000000,0.2083430000,1.0763980000,35.7274476710,-78.6967279522,10.0000000000,0.0020668454,-0.0019003663,-0.0465809825,0.1363239298,0.0000000000,-0.0029481549,54.6580982461
2026-01-20 17:45:20.028982,25.0004660765,0.1012858560,12.5870000000,6.0000000000,0.6470400000,2.3102620000,35.7274479004,-78.6967294425,10.0000000000,-0.0215847685,-0.0989526106,0.0861504801,-0.4373157963,0.0000000000,-0.0001638396,55.2669617256
2026-01-20 17:45:20.258049,25.0000098791,0.2860834640,12.5870000000,6.0000000000,0.2290800000,2.7383830000,35.7274482426,-78.6967313585,10.0000000000,-0.0359715727,-0.1630444540,0.2024808327,-0.9391330039,0.0000000000,0.0022630697,55.4950604563
2026-01-20 17:45:20.719963,24.9990899564,0.1418921260,12.5870000000,6.0000000000,0.4618720000,3.0738590000,35.7274489325,-78.6967352222,10.0000000000,-0.0649825781,-0.2922857217,0.4370611079,-1.9510479164,0.0000000000,0.0071569348,55.9550217802
2026-01-20 17:45:20.882156,24.9998148858,0.0447692170,12.5870000000,6.0000000000,1.4638630000,1.1174980000,35.7274497800,-78.6967396628,10.0000000000,-0.0666468772,-0.3038225409,0.5193702545,-2.2991222445,0.0000000000,0.0072431335,56.1164122638
2026-01-20 17:45:21.140047,25.0016106866,0.1559890700,12.5870000000,6.0000000000,0.4201320000,3.5023600000,35.7274514988,-78.6967486161,10.0000000000,-0.0640627681,-0.3013955751,0.6502071648,-2.8481241817,0.0000000000,0.0063784776,56.3729552251
2026-01-20 17:45:21.184068,25.0019172227,0.2170677180,12.5870000000,6.0000000000,0.3019150000,1.1503850000,35.7274517922,-78.6967501444,10.0000000000,-0.0636216708,-0.3009813016,0.6725405110,-2.9418366538,0.0000000000,0.0062308843,56.4167460999
2026-01-20 17:45:21.314950,25.0028286060,0.7494625130,12.5870000000,6.0000000000,0.1748880000,3.7940940000,35.7274526645,-78.6967546883,10.0000000000,-0.0623102147,-0.2997495970,0.7389412946,-3.2204595499,0.0000000000,0.0057920645,56.5469437149
2026-01-20 17:45:41.899879,25.0000000000,0.0031836890,12.5870000000,6.0000000000,20.5849270000,2.1522150000,35.7276418688,-78.6977621720,10.0000000000,0.0180937649,0.0683477092,0.1234424505,-0.5814055499,0.0000000000,-0.0079283213,75.5698882881
2026-01-20 17:45:42.043390,25.0000000000,0.9140051880,12.5870000000,6.0000000000,0.1434040000,0.4903860000,35.7276419926,-78.6977628202,10.0000000000,0.0158249105,0.0598679663,0.0957685456,-0.4474055894,0.0000000000,-0.0081213934,75.6427143536
2026-01-20 17:45:42.175862,25.0000000000,0.0031219800,12.5870000000,6.0000000000,20.9918040000,1.6104880000,35.7276421069,-78.6977634185,10.0000000000,0.0137305781,0.0520404915,0.0702233381,-0.3237130056,0.0000000000,-0.0082996142,75.7099385839
2026-01-20 17:45:42.181013,25.0000000000,1.4274782000,12.5870000000,6.0000000000,0.1377310000,0.6267330000,35.7276421113,-78.6977634417,10.0000000000,0.0136491431,0.0517361320,0.0692300513,-0.3189034064,0.0000000000,-0.0083065440,75.7125524965
2026-01-20 17:45:42.311947,25.0000000000,1.5015580130,12.5870000000,6.0000000000,0.1309360000,0.7438400000,35.7276422243,-78.6977640331,10.0000000000,0.0115791267,0.0439995369,0.0439814328,-0.1966469377,0.0000000000,-0.0084826956,75.7789962295
2026-01-20 17:45:42.447791,25.0000000000,1.4484587730,12.5870000000,6.0000000000,0.1357360000,0.8609170000,35.7276423415,-78.6977646466,10.0000000000,0.0094314837,0.0359728164,0.0177859806,-0.0698058006,0.0000000000,-0.0086654529,75.8479316301
2026-01-20 17:45:42.560008,25.0000000000,1.1672217570,12.5870000000,6.0000000000,0.1122940000,0.9727410000,35.7276424383,-78.6977651534,10.0000000000,0.0076573787,0.0293421774,-0.0038533159,0.0349739505,0.0000000000,-0.0088164234,75.9048771470
2026-01-20 17:45:42.815921,24.9997949010,0.5121020200,12.5870000000,6.0000000000,0.2559490000,1.1156580000,35.7276425932,-78.6977659248,10.0000000000,0.0002954810,-0.0006831819,-0.0283777261,0.1573579358,0.0000000000,-0.0084733607,76.0683663171
2026-01-20 17:45:43.926923,24.9973539382,0.0589883520,12.5870000000,6.0000000000,1.1109990000,1.7887890000,35.7276431548,-78.6977683332,10.0000000000,-0.0625171738,-0.2730472009,0.2326420741,-1.0024227334,0.0000000000,0.0004268613,77.1769690934
2026-01-20 17:45:44.338408,24.9981719623,0.3185364120,12.5870000000,6.0000000000,0.4114820000,2.4745630000,35.7276446681,-78.6977762680,10.0000000000,-0.0691625468,-0.3057246302,0.4698690694,-2.0249528852,0.0000000000,0.0022498147,77.5859811541
2026-01-20 17:45:44.454918,24.9984035819,0.5624538700,12.5870000000,6.0000000000,0.1165180000,2.7614650000,35.7276450966,-78.6977785147,10.0000000000,-0.0710441518,-0.3149770851,0.5370387369,-2.3144773144,0.0000000000,0.0027659750,77.7017909257
2026-01-20 17:45:44.626508,24.9987446998,0.7653794720,12.5870000000,6.0000000000,0.1712510000,2.8973210000,35.7276457277,-78.6977818236,10.0000000000,-0.0738152874,-0.3286036469,0.6359629295,-2.7408746963,0.0000000000,0.0035261507,77.8723498785
2026-01-20 17:45:44.819965,24.9993247924,0.6763575190,12.5870000000,6.0000000000,0.1937910000,3.0597980000,35.7276467457,-78.6977871322,10.0000000000,-0.0737796640,-0.3321797264,0.7327354679,-3.1548393803,0.0000000000,0.0034328837,78.0649584796
2026-01-20 17:45:47.319323,24.9948866535,0.0127421110,12.5870000000,6.0000000000,5.1432610000,1.9204950000,35.7276703337,-78.6979105387,10.0000000000,-0.0342529671,-0.2139398227,1.1055667326,-4.8523675235,0.0000000000,-0.0081348065,80.5566732575
2026-01-20 17:45:48.254042,24.9949721441,0.0381679880,12.5870000000,6.0000000000,3.4340820000,2.2285180000,35.7276799065,-78.6979615798,10.0000000000,-0.0330634388,-0.2079848842,1.1100000000,-4.9148607203,0.0000000000,-0.0083868762,81.4860720345
2026-01-20 17:45:48.416565,24.9952953460,1.2096720610,12.5870000000,6.0000000000,0.1625300000,0.3346850000,35.7276815710,-78.6979705163,10.0000000000,-0.0328276446,-0.2066982506,1.1100000000,-4.9164767299,0.0000000000,-0.0082704948,81.6476729875
2026-01-20 17:45:48.564005,24.9955885535,0.8924415640,12.5870000000,6.0000000000,0.1468690000,0.4747620000,35.7276830811,-78.6979786235,10.0000000000,-0.0326137329,-0.2055310216,1.1100000000,-4.9179427675,0.0000000000,-0.0081649141,81.7942767469
2026-01-20 17:45:48.702058,24.9958630930,0.9455694470,12.5870000000,6.0000000000,0.1386170000,0.6013390000,35.7276844949,-78.6979862145,10.0000000000,-0.0324134407,-0.2044381080,1.1100000000,-4.9193154649,0.0000000000,-0.0080660554,81.9315464925
2026-01-20 17:45:49.137587,24.9967325041,0.0360417440,12.5870000000,6.0000000000,1.8183360000,0.9280560000,35.7276889358,-78.6980101072,10.0000000000,-0.0324301618,-0.2027754264,1.1100000000,-4.9090124389,0.0000000000,-0.0080314451,82.3662520357
2026-01-20 17:45:49.372364,24.9972015039,1.1159812690,12.5870000000,6.0000000000,0.2349000000,0.1287270000,35.7276913277,-78.6980229813,10.0000000000,-0.0325048188,-0.2020598174,1.1100000000,-4.9019774413,0.0000000000,-0.0080408497,82.6007519560
2026-01-20 17:45:49.375810,24.9972083878,0.0972703570,12.5870000000,6.0000000000,0.6737510000,0.4288030000,35.7276913628,-78.6980231702,10.0000000000,-0.0325059146,-0.2020493138,1.1100000000,-4.9018741829,0.0000000000,-0.0080409877,82.6041939038
2026-01-20 17:45:49.504717,24.9974658975,2.4757098170,12.5870000000,6.0000000000,0.1323580000,0.3411720000,35.7276926761,-78.6980302389,10.0000000000,-0.0325469059,-0.2016564006,1.1100000000,-4.8980115381,0.0000000000,-0.0080461514,82.7329487298
2026-01-20 17:45:49.544809,24.9975459866,1.1634642130,12.5870000000,6.0000000000,0.1689850000,0.2534150000,35.7276930845,-78.6980324373,10.0000000000,-0.0325596548,-0.2015341991,1.1100000000,-4.8968102009,0.0000000000,-0.0080477573,82.7729933030
2026-01-20 17:45:49.624045,24.9977042717,2.1972407090,12.5870000000,6.0000000000,0.1193060000,0.4438180000,35.7276938918,-78.6980367823,10.0000000000,-0.0325848512,-0.2012926846,1.1100000000,-4.8944359243,0.0000000000,-0.0080509313,82.8521358563
2026-01-20 17:45:49.657094,24.9977702913,1.1699201140,12.5870000000,6.0000000000,0.1120350000,0.3776770000,35.7276942285,-78.6980385945,10.0000000000,-0.0325953604,-0.2011919506,1.1100000000,-4.8934456298,0.0000000000,-0.0080522552,82.8851456723
2026-01-20 17:45:50.045772,24.9980000000,0.6215654850,12.5870000000,6.0000000000,0.4217480000,0.5894370000,35.7276982132,-78.6980597851,10.0000000000,-0.0325883963,-0.2008927284,1.1072687814,-4.8818063442,0.0000000000,-0.0082722252,83.2731218584
2026-01-20 17:45:50.067750,24.9980000000,0.3189666290,12.5870000000,6.0000000000,0.4109270000,0.5748290000,35.7276984391,-78.6980609805,10.0000000000,-0.0325849008,-0.2008968457,1.1070494575,-4.8811483726,0.0000000000,-0.0082895195,83.2950542466
2026-01-20 17:45:50.164658,24.9980000000,2.7562770740,12.5870000000,6.0000000000,0.1188850000,0.9064010000,35.7276994351,-78.6980662510,10.0000000000,-0.0325694876,-0.2009150001,1.1060823820,-4.8782471461,0.0000000000,-0.0083657759,83.3917617953
2026-01-20 17:45:50.187684,24.9980000000,1.0929497600,12.5870000000,6.0000000000,0.1199250000,0.8651030000,35.7276996718,-78.6980675033,10.0000000000,-0.0325658253,-0.2009193137,1.1058525967,-4.8775577900,0.0000000000,-0.0083838951,83.4147403348
2026-01-20 17:45:50.304790,24.9980000000,2.3383833700,12.5870000000,6.0000000000,0.1401310000,1.0041100000,35.7277008755,-78.6980738724,10.0000000000,-0.0325471997,-0.2009412519,1.1046839601,-4.8740518804,0.0000000000,-0.0084760452,83.5316039862
2026-01-20 17:45:50.317845,24.9980000000,1.0072156950,12.5870000000,6.0000000000,0.1301330000,0.9815910000,35.7277010097,-78.6980745824,10.0000000000,-0.0325451233,-0.2009436976,1.1045536805,-4.8736610414,0.0000000000,-0.0084863181,83.5446319540
2026-01-20 17:45:50.409790,24.9980000000,2.4964430940,12.5870000000,6.0000000000,0.1050070000,1.1144850000,35.7277019548,-78.6980795831,10.0000000000,-0.0325304995,-0.2009609222,1.1036361330,-4.8709083990,0.0000000000,-0.0085586692,83.6363866984
2026-01-20 17:45:50.562673,24.9980000000,1.7148052930,12.5870000000,6.0000000000,0.1528710000,1.2043030000,35.7277035262,-78.6980878980,10.0000000000,-0.0325061836,-0.2009895628,1.1021104664,-4.8663313993,0.0000000000,-0.0086789721,83.7889533583
2026-01-20 17:45:50.642054,24.9980000000,0.6065658230,12.5870000000,6.0000000000,0.3241330000,1.1440880000,35.7277043422,-78.6980922153,10.0000000000,-0.0324935581,-0.2010044337,1.1013182987,-4.8639548962,0.0000000000,-0.0087414366,83.8681701269
2026-01-20 17:45:50.919687,24.9981446269,0.4719318780,12.5870000000,6.0000000000,0.2777350000,1.4461280000,35.7277071607,-78.6981071809,10.0000000000,-0.0325283381,-0.2015182792,1.1000000000,-4.8614462694,0.0000000000,-0.0087190990,84.1446269396
2026-01-20 17:45:51.043781,24.9982679512,1.0574330590,12.5870000000,6.0000000000,0.1239530000,1.6608840000,35.7277084063,-78.6981138158,10.0000000000,-0.0325759113,-0.2019353359,1.1000000000,-4.8626795123,0.0000000000,-0.0086114115,84.2679512252
2026-01-20 17:45:51.148785,24.9983723035,0.6232679340,12.5870000000,6.0000000000,0.1051490000,1.7635610000,35.7277094603,-78.6981194299,10.0000000000,-0.0326161660,-0.2022882333,1.1000000000,-4.8637230352,0.0000000000,-0.0085202906,84.3723035223
2026-01-20 17:45:51.255570,24.9984784260,1.2300531170,12.5870000000,6.0000000000,0.1065580000,1.8576480000,35.7277105321,-78.6981251393,10.0000000000,-0.0326571036,-0.2026471172,1.1000000000,-4.8647842602,0.0000000000,-0.0084276238,84.4784260159
2026-01-20 17:45:51.396644,24.9986186249,1.3913338850,12.5870000000,6.0000000000,0.1413090000,1.9709430000,35.7277119481,-78.6981326820,10.0000000000,-0.0327111864,-0.2031212403,1.1000000000,-4.8661862492,0.0000000000,-0.0083052014,84.6186249201
2026-01-20 17:45:51.502203,24.9987235288,1.2419765950,12.5870000000,6.0000000000,0.1055350000,2.0752450000,35.7277130076,-78.6981383258,10.0000000000,-0.0327516538,-0.2034760030,1.1000000000,-4.8672352878,0.0000000000,-0.0082135988,84.7235287817
2026-01-20 17:45:51.616715,24.9988373304,1.1448836090,12.5870000000,6.0000000000,0.1144850000,2.1804150000,35.7277141570,-78.6981444484,10.0000000000,-0.0327955537,-0.2038608561,1.1000000000,-4.8683733044,0.0000000000,-0.0081142266,84.8373304378
2026-01-20 17:45:51.910621,24.9992587980,0.6688552700,12.5870000000,6.0000000000,0.2939470000,2.3364740000,35.7277171069,-78.6981602134,10.0000000000,-0.0328731484,-0.2040926676,1.1000000000,-4.8687060099,0.0000000000,-0.0079894166,85.1293990066
2026-01-20 17:46:17.330853,25.0005518570,0.0051562080,12.5870000000,6.0000000000,25.4202300000,2.2724390000,35.7279327393,-78.6992954555,10.0000000000,-0.0352478051,-0.2024249369,1.1300000000,-4.8600000000,0.0000000000,-0.0130610591,108.5518569571
2026-01-20 17:46:23.119753,25.0006921419,0.0113209760,12.5870000000,6.0000000000,5.7889000000,1.6267970000,35.7279933017,-78.6996108859,10.0000000000,-0.0354762871,-0.2021697671,1.1300000000,-4.8500000000,0.0000000000,-0.0132130780,114.3078581361
2026-01-20 17:46:24.029919,25.0002135417,0.0720049220,12.5870000000,6.0000000000,0.9101600000,1.4038600000,35.7280026995,-78.6996598885,10.0000000000,-0.0342705903,-0.1998169365,1.1300000000,-4.8478645827,0.0000000000,-0.0127311937,115.2135417330
2026-01-20 17:46:24.232780,25.0004153536,0.3230602390,12.5870000000,6.0000000000,0.2028600000,1.2753510000,35.7280047781,-78.6996707460,10.0000000000,-0.0346117442,-0.2000924861,1.1300000000,-4.8458464640,0.0000000000,-0.0125109783,115.4153535998
2026-01-20 17:46:25.718931,25.0010000000,0.0440986970,12.5870000000,6.0000000000,1.4861210000,1.4673420000,35.7280201172,-78.6997506674,10.0000000000,-0.0337426499,-0.1974905179,1.1210411421,-4.8310411421,0.0000000000,-0.0134067427,116.8958857903
2026-01-20 17:46:43.509195,24.9994532876,0.0036838060,12.5870000000,6.0000000000,17.7902940000,1.3130680000,35.7281355773,-78.7003451453,10.0000000000,0.0118439694,0.0399288370,-0.0396020581,0.0812109763,0.0000000000,-0.0237036193,132.7733562007
2026-01-20 17:46:45.366810,24.9972415593,0.0352795130,12.5870000000,6.0000000000,1.8576220000,0.8770250000,35.7281451359,-78.7003377683,10.0000000000,-0.2801891672,0.0852069412,1.9995335219,0.7172989734,0.0000000000,-0.0362042964,134.6207796459
2026-01-20 17:46:45.514307,24.9975353504,1.3329988540,12.5870000000,6.0000000000,0.1474930000,0.7690140000,35.7281473687,-78.7003366960,10.0000000000,-0.2973506259,0.0915718328,2.3638345518,0.8113121424,0.0000000000,-0.0376643000,134.7676752225
2026-01-20 17:46:45.625200,24.9977562323,1.1842856630,12.5870000000,6.0000000000,0.1106760000,0.7022930000,35.7281490474,-78.7003358898,10.0000000000,-0.3102531739,0.0963571672,2.6377280239,0.8819943288,0.0000000000,-0.0387619786,134.8781161387
2026-01-20 17:46:47.474752,24.9986572026,0.0354293650,12.5870000000,6.0000000000,1.8497650000,0.8138930000,35.7282155205,-78.7003101811,10.0000000000,-0.2196819432,0.0567937598,4.6443778682,1.4234279745,0.0000000000,-0.0308106459,136.7237995749
2026-01-20 17:46:47.604150,24.9978818379,1.5191821790,12.5870000000,6.0000000000,0.1294170000,0.9187530000,35.7282208447,-78.7003081781,10.0000000000,-0.2179548202,0.0557538295,4.6844383759,1.4311816211,0.0000000000,-0.0306273588,136.8530270189
2026-01-20 17:46:47.727157,24.9971447689,0.5333116330,12.5870000000,6.0000000000,0.1228850000,0.8947300000,35.7282259059,-78.7003062740,10.0000000000,-0.2163130009,0.0547652620,4.7225202728,1.4385523109,0.0000000000,-0.0304531243,136.9758718476
2026-01-20 17:46:49.455961,24.9937015871,0.0379057230,12.5870000000,6.0000000000,1.7289210000,0.8881320000,35.7283014295,-78.7002786746,10.0000000000,-0.1372935373,0.0292612461,4.6805714949,1.3968571650,0.0000000000,-0.0274841391,138.7015870559
2026-01-20 17:46:49.568006,24.9938133981,0.5849391730,12.5870000000,6.0000000000,0.1120390000,0.9110140000,35.7283063268,-78.7002768856,10.0000000000,-0.1261723511,0.0257009290,4.6503825243,1.3867941748,0.0000000000,-0.0270429153,138.8133980582
2026-01-20 17:46:49.732091,24.9939771407,1.9996216540,12.5870000000,6.0000000000,0.1638710000,0.8818010000,35.7283134988,-78.7002742657,10.0000000000,-0.1098858324,0.0204869914,4.6061720210,1.3720573403,0.0000000000,-0.0263967612,138.9771406631
2026-01-20 17:46:50.117746,24.9929145980,0.1699466060,12.5870000000,6.0000000000,0.3856270000,0.4155280000,35.7283278866,-78.7002690881,10.0000000000,-0.0649748643,0.0081422285,4.1730752102,1.2361337523,0.0000000000,-0.0261164666,139.3618006693
2026-01-20 17:46:50.187609,24.9927055558,0.0021982790,12.5870000000,6.0000000000,59.6248120000,0.9084060000,35.7283304648,-78.7002681613,10.0000000000,-0.0567631678,0.0059048859,4.0908519417,1.2103518800,0.0000000000,-0.0260798567,139.4314814054
2026-01-20 17:46:50.299239,24.9923715408,2.1657991710,12.5870000000,6.0000000000,0.1815570000,0.0770550000,35.7283345843,-78.7002666805,10.0000000000,-0.0436422306,0.0023299815,3.9594727149,1.1691566987,0.0000000000,-0.0260213602,139.5428197331
2026-01-20 17:46:50.415449,24.9920238206,3.3780572670,12.5870000000,6.0000000000,0.1164030000,0.1998410000,35.7283388729,-78.7002651389,10.0000000000,-0.0299829201,-0.0013916071,3.8227027862,1.1262712126,0.0000000000,-0.0259604634,139.6587264524
2026-01-20 17:46:50.468357,24.9918655110,0.2333271620,12.5870000000,6.0000000000,0.2808760000,0.2763180000,35.7283408254,-78.7002644371,10.0000000000,-0.0237641254,-0.0030859676,3.7604343342,1.1067463590,0.0000000000,-0.0259327385,139.7114963269
2026-01-20 17:46:50.524715,24.9916968789,2.4015977430,12.5870000000,6.0000000000,0.1091540000,0.2934920000,35.7283429052,-78.7002636895,10.0000000000,-0.0171398355,-0.0048908084,3.6941056822,1.0859483919,0.0000000000,-0.0259032056,139.7677070490
2026-01-20 17:46:50.704799,24.9911580377,1.8184946140,12.5870000000,6.0000000000,0.1801930000,0.4050580000,35.7283495509,-78.7002613006,10.0000000000,0.0040271819,-0.0106579320,3.4821614936,1.0194913158,0.0000000000,-0.0258088376,139.9473207681
2026-01-20 17:46:50.722422,24.9911053066,0.2579730910,12.5870000000,6.0000000000,0.2540420000,0.5287760000,35.7283502012,-78.7002610669,10.0000000000,0.0060985890,-0.0112223034,3.4614206084,1.0129878179,0.0000000000,-0.0257996027,139.9648977895
2026-01-20 17:46:50.887579,24.9912595202,0.7176050630,12.5870000000,6.0000000000,0.1826520000,0.5617650000,35.7283546661,-78.7002594581,10.0000000000,0.0244124679,-0.0160022401,3.2175742667,0.9403103607,0.0000000000,-0.0262449103,140.1297600854
2026-01-20 17:46:51.003877,24.9914917539,3.3870192510,12.5870000000,6.0000000000,0.1160950000,0.6805330000,35.7283574994,-78.7002584363,10.0000000000,0.0370990282,-0.0192710302,3.0364319306,0.8868965949,0.0000000000,-0.0266599009,140.2458769676
2026-01-20 17:46:51.005441,24.9914948769,0.2323889220,12.5870000000,6.0000000000,0.2820100000,0.7843020000,35.7283575375,-78.7002584225,10.0000000000,0.0372696289,-0.0193149868,3.0339960448,0.8861783209,0.0000000000,-0.0266654814,140.2474384328
2026-01-20 17:46:51.109323,24.9917023168,1.8588609030,12.5870000000,6.0000000000,0.1057680000,0.8123580000,35.7283600683,-78.7002575098,10.0000000000,0.0486017441,-0.0222347937,2.8721928631,0.8384671263,0.0000000000,-0.0270361666,140.3511584211
2026-01-20 17:46:51.191732,24.9918668777,0.3522418220,12.5870000000,6.0000000000,0.1860540000,1.0083330000,35.7283620759,-78.7002567857,10.0000000000,0.0575914437,-0.0245510591,2.7438353614,0.8006181194,0.0000000000,-0.0273302291,140.4334388709
2026-01-20 17:46:51.223880,24.9919310734,4.5770956650,12.5870000000,6.0000000000,0.1145460000,0.8696730000,35.7283628591,-78.7002565033,10.0000000000,0.0610983509,-0.0254546408,2.6937627375,0.7858531149,0.0000000000,-0.0274449436,140.4655367067
2026-01-20 17:46:51.327297,24.9921375850,5.0690618690,12.5870000000,6.0000000000,0.1034290000,0.9458140000,35.7283653785,-78.7002555946,10.0000000000,0.0723797522,-0.0283613809,2.5326836626,0.7383554390,0.0000000000,-0.0278139700,140.5687925240
2026-01-20 17:46:51.425456,24.9923335971,0.2789003320,12.5870000000,6.0000000000,0.2349800000,1.2088480000,35.7283677699,-78.7002547322,10.0000000000,0.0830875789,-0.0311203350,2.3797942516,0.6932726639,0.0000000000,-0.0281642341,140.6667985567
2026-01-20 17:46:51.575472,24.9926331612,0.4368542440,12.5870000000,6.0000000000,0.1500180000,1.3913420000,35.7283714246,-78.7002534141,10.0000000000,0.0994522894,-0.0353368289,2.1461342349,0.6243729154,0.0000000000,-0.0286995408,140.8165806187
2026-01-20 17:46:51.698348,24.9928785298,0.7065247570,12.5870000000,6.0000000000,0.3710330000,0.9676900000,35.7283744181,-78.7002523345,10.0000000000,0.1128563836,-0.0387904972,1.9547467443,0.5679381426,0.0000000000,-0.0291380027,140.9392649075
2026-01-20 17:46:51.713804,24.9929093936,0.9475312660,12.5870000000,6.0000000000,0.1383300000,1.5254180000,35.7283747946,-78.7002521987,10.0000000000,0.1145424235,-0.0392249184,1.9306729841,0.5608394697,0.0000000000,-0.0291931548,140.9546968051
2026-01-20 17:46:52.040389,24.9946834369,0.2006589020,12.5870000000,6.0000000000,0.3266040000,1.7454910000,35.7283785374,-78.7002508461,10.0000000000,0.1140962601,-0.0378052845,1.4307235966,0.4165479624,0.0000000000,-0.0291573783,141.2805728126
2026-01-20 17:46:52.084741,24.9949489448,0.1696483350,12.5870000000,6.0000000000,0.3863050000,0.8705120000,35.7283789533,-78.7002506956,10.0000000000,0.1132452392,-0.0373802417,1.3630190693,0.3970773794,0.0000000000,-0.0291261998,141.3248241377
2026-01-20 17:46:52.192390,24.9955933713,0.8623895460,12.5870000000,6.0000000000,0.1519870000,1.9686220000,35.7283799629,-78.7002503304,10.0000000000,0.1111796874,-0.0363486010,1.1986903140,0.3498194367,0.0000000000,-0.0290505248,141.4322285529
2026-01-20 17:46:52.335329,24.9964490594,0.9169721560,12.5870000000,6.0000000000,0.1429400000,2.1069280000,35.7283813035,-78.7002498455,10.0000000000,0.1084369882,-0.0349787586,0.9804898577,0.2870689787,0.0000000000,-0.0289500415,141.5748432303
2026-01-20 17:46:52.494027,24.9973990859,0.8260822980,12.5870000000,6.0000000000,0.1586670000,2.2494310000,35.7283827919,-78.7002493072,10.0000000000,0.1053919100,-0.0334578929,0.7382330938,0.2174003668,0.0000000000,-0.0288384801,141.7331809845
2026-01-20 17:46:52.653441,24.9983533989,0.8219844720,12.5870000000,6.0000000000,0.1594580000,2.3974260000,35.7283842870,-78.7002487664,10.0000000000,0.1023330927,-0.0319301653,0.4948832876,0.1474174160,0.0000000000,-0.0287264152,141.8922331454
2026-01-20 17:46:52.907430,24.9987086634,0.2580441940,12.5870000000,6.0000000000,0.2539720000,2.5938240000,35.7283853291,-78.7002483709,10.0000000000,0.0890682592,-0.0272937896,0.2571658386,0.0810631180,0.0000000000,-0.0284013412,142.1456683228
2026-01-20 17:46:53.029481,24.9984650771,0.1387226950,12.5870000000,6.0000000000,0.9448490000,1.0491900000,35.7283853535,-78.7002483465,10.0000000000,0.0797103796,-0.0242827853,0.1962692747,0.0652300114,0.0000000000,-0.0281930324,142.2674614506
2026-01-20 17:46:53.132438,24.9982595982,0.5824930340,12.5870000000,6.0000000000,0.2250190000,2.8143450000,35.7283853740,-78.7002483260,10.0000000000,0.0718164732,-0.0217428311,0.1448995420,0.0518738809,0.0000000000,-0.0280173120,142.3702009159
2026-01-20 17:46:53.289381,24.9979463753,0.8351673560,12.5870000000,6.0000000000,0.1569410000,3.0013290000,35.7283854054,-78.7002482946,10.0000000000,0.0597833576,-0.0178710392,0.0665938328,0.0315143965,0.0000000000,-0.0277494517,142.5268123345
2026-01-20 17:46:53.367794,24.9977898812,0.1938751360,12.5870000000,6.0000000000,0.3380320000,1.2725320000,35.7283854210,-78.7002482790,10.0000000000,0.0537713044,-0.0159365926,0.0274702920,0.0213422759,0.0000000000,-0.0276156218,142.6050594159
2026-01-20 17:46:53.663274,24.9972001700,0.1752768120,12.5870000000,6.0000000000,0.3739000000,3.2472260000,35.7283854800,-78.7002482200,10.0000000000,0.0311163058,-0.0086470890,-0.1199575044,-0.0169889511,0.0000000000,-0.0271113156,142.8999150088
2026-01-20 17:46:53.907327,24.9965695901,0.1214054550,12.5870000000,6.0000000000,0.5398110000,1.0914520000,35.7283851987,-78.7002482861,10.0000000000,0.0228474543,0.0091830066,-0.1743040987,-0.0070448072,0.0000000000,-0.0267795530,143.1434699552
2026-01-20 17:46:53.956403,24.9964226552,0.2235853630,12.5870000000,6.0000000000,0.2931140000,3.5632330000,35.7283850959,-78.7002483155,10.0000000000,0.0226498274,0.0144252150,-0.1757734478,0.0007917218,0.0000000000,-0.0267247328,143.1924482612
2026-01-20 17:46:54.314843,24.9953494753,0.1608245400,12.5870000000,6.0000000000,0.4075000000,0.9826130000,35.7283843446,-78.7002485301,10.0000000000,0.0212064045,0.0527131373,-0.1865052469,0.0580279834,0.0000000000,-0.0263243385,143.5501748961
2026-01-20 17:46:56.080444,24.9988020048,0.0371178190,12.5870000000,6.0000000000,1.7656210000,1.1941730000,35.7283767848,-78.7002227089,10.0000000000,0.0726122864,0.2997585783,-0.8238735634,3.1421943338,-0.0068866613,-0.0147430145,145.3113338684
2026-01-20 17:46:56.258643,25.0004036915,0.3678243500,12.5870000000,6.0000000000,0.1781720000,1.3560690000,35.7283752899,-78.7002156259,10.0000000000,0.0693470035,0.2884926425,-0.9003985930,3.4749892302,-0.0051070095,-0.0157218817,145.4892990536
2026-01-20 17:46:56.487085,25.0024569724,0.2868749120,12.5870000000,6.0000000000,0.2284480000,1.3193770000,35.7283733735,-78.7002065458,10.0000000000,0.0651610769,0.2740502853,-0.9984997915,3.9016153724,-0.0028255862,-0.0169767397,145.7174413756
2026-01-20 17:46:56.637581,25.0038096589,0.4354348970,12.5870000000,6.0000000000,0.1505070000,1.3188520000,35.7283721110,-78.7002005640,10.0000000000,0.0624034189,0.2645357656,-1.0631281467,4.1826735684,-0.0013226012,-0.0178034310,145.8677398762
2026-01-20 17:46:57.709581,25.0031264474,0.0611337010,12.5870000000,6.0000000000,1.0720110000,1.3676120000,35.7283614449,-78.7001477118,10.0000000000,0.0479448869,0.2246424316,-1.1855743421,4.7578717103,0.0000000000,-0.0209398176,146.9367763152
2026-01-20 17:47:11.987092,24.9950000000,0.0036346890,12.5870000000,6.0000000000,18.0307050000,3.5601400000,35.7282107781,-78.6993742555,10.0000000000,0.0410935407,0.1997067965,-1.1700000000,4.8622326255,0.0000000000,-0.0228661885,160.2232625487
2026-01-20 17:47:14.449876,24.9950000000,0.0039148720,12.5870000000,6.0000000000,16.7402680000,0.7261950000,35.7281852241,-78.6992430144,10.0000000000,0.0424541014,0.2041168581,-1.1700000000,4.8834151656,0.0000000000,-0.0222190076,162.6707582810
2026-01-20 17:47:14.518360,24.9950000000,0.0517966530,12.5870000000,6.0000000000,2.5305110000,2.3825520000,35.7281845158,-78.6992393707,10.0000000000,0.0425411054,0.2042903530,-1.1700000000,4.8847773081,0.0000000000,-0.0222194372,162.7388654057
2026-01-20 17:47:14.557029,24.9950000000,0.6120626860,12.5870000000,6.0000000000,0.1070740000,0.1098240000,35.7281841159,-78.6992373133,10.0000000000,0.0425902316,0.2043883157,-1.1700000000,4.8855464322,0.0000000000,-0.0222196799,162.7773216076
2026-01-20 17:47:14.625359,24.9950000000,1.2168520340,12.5870000000,6.0000000000,0.1077140000,0.2735870000,35.7281834091,-78.6992336778,10.0000000000,0.0426770398,0.2045614203,-1.1700000000,4.8869055094,0.0000000000,-0.0222201086,162.8452754686
2026-01-20 17:47:14.678494,24.9950000000,3.2381313150,12.5870000000,6.0000000000,0.1214330000,0.2010010000,35.7281828596,-78.6992308507,10.0000000000,0.0427445437,0.2046960300,-1.1700000000,4.8879623567,0.0000000000,-0.0222204419,162.8981178353
2026-01-20 17:47:14.894778,24.9950000000,0.6056623740,12.5870000000,6.0000000000,0.2164110000,0.3263800000,35.7281806072,-78.6992192431,10.0000000000,0.0426928101,0.2042894864,-1.1700000000,4.8900000000,0.0000000000,-0.0222906207,163.1135953168
2026-01-20 17:47:14.940127,24.9950000000,0.2081783440,12.5870000000,6.0000000000,0.3148070000,0.4686220000,35.7281801321,-78.6992167905,10.0000000000,0.0426203543,0.2040241462,-1.1700000000,4.8900000000,0.0000000000,-0.0223183212,163.1588474730
2026-01-20 17:47:15.060049,24.9950000000,1.0929315330,12.5870000000,6.0000000000,0.1199270000,0.6794270000,35.7281788756,-78.6992103046,10.0000000000,0.0424287501,0.2033224725,-1.1700000000,4.8900000000,0.0000000000,-0.0223915734,163.2785136558
2026-01-20 17:47:15.072739,24.9950000000,1.4730004610,12.5870000000,6.0000000000,0.1779660000,0.4886130000,35.7281787426,-78.6992096182,10.0000000000,0.0424084745,0.2032482212,-1.1700000000,4.8900000000,0.0000000000,-0.0223993250,163.2911767696
2026-01-20 17:47:15.189225,24.9950000000,2.8155798630,12.5870000000,6.0000000000,0.1163810000,0.6308750000,35.7281775222,-78.6992033181,10.0000000000,0.0422223602,0.2025666520,-1.1700000000,4.8900000000,0.0000000000,-0.0224704784,163.4074142479
2026-01-20 17:47:15.206087,24.9950000000,0.4487875700,12.5870000000,6.0000000000,0.1460290000,0.7939570000,35.7281773455,-78.6992024062,10.0000000000,0.0421954191,0.2024679913,-1.1700000000,4.8900000000,0.0000000000,-0.0224807782,163.4242402413
2026-01-20 17:47:15.339120,24.9950000000,0.9853704010,12.5870000000,6.0000000000,0.1330180000,0.9233480000,35.7281759516,-78.6991952112,10.0000000000,0.0419828665,0.2016896022,-1.1700000000,4.8900000000,0.0000000000,-0.0225620392,163.5569897599
2026-01-20 17:47:15.370013,24.9950000000,1.0877464760,12.5870000000,6.0000000000,0.1807480000,0.7448450000,35.7281756279,-78.6991935403,10.0000000000,0.0419335078,0.2015088457,-1.1700000000,4.8900000000,0.0000000000,-0.0225809095,163.5878166800
2026-01-20 17:47:15.486569,24.9950000000,1.6847300770,12.5870000000,6.0000000000,0.1167000000,0.8890740000,35.7281744067,-78.6991872365,10.0000000000,0.0417472814,0.2008268662,-1.1700000000,4.8900000000,0.0000000000,-0.0226521057,163.7041241527
2026-01-20 17:47:15.538230,24.9950000000,0.6582364930,12.5870000000,6.0000000000,0.1991260000,1.0597260000,35.7281738654,-78.6991844424,10.0000000000,0.0416647404,0.2005245928,-1.1700000000,4.8900000000,0.0000000000,-0.0226836620,163.7556750399
2026-01-20 17:47:15.610378,24.9950000000,1.0592789550,12.5870000000,6.0000000000,0.1237370000,1.0005000000,35.7281731095,-78.6991805403,10.0000000000,0.0415494666,0.2001024487,-1.1700000000,4.8900000000,0.0000000000,-0.0227277323,163.8276691502
2026-01-20 17:47:15.669607,24.9950000000,1.0055389340,12.5870000000,6.0000000000,0.1303500000,1.2241930000,35.7281724889,-78.6991773370,10.0000000000,0.0414548341,0.1997558951,-1.1700000000,4.8900000000,0.0000000000,-0.0227639112,163.8867717707
2026-01-20 17:47:15.874425,24.9950000000,0.4967407450,12.5870000000,6.0000000000,0.2638640000,1.1371390000,35.7281703519,-78.6991663043,10.0000000000,0.0413601151,0.1994451818,-1.1700000000,4.8881766614,0.0000000000,-0.0228120226,164.0911669294
2026-01-20 17:47:15.921223,24.9950000000,0.2594570630,12.5870000000,6.0000000000,0.2525890000,1.4107640000,35.7281698661,-78.6991637963,10.0000000000,0.0414044688,0.1996261328,-1.1700000000,4.8872425599,0.0000000000,-0.0228011618,164.1378720069
2026-01-20 17:47:16.020832,24.9950000000,0.4485571920,12.5870000000,6.0000000000,0.1461040000,1.3561540000,35.7281688322,-78.6991584579,10.0000000000,0.0414988756,0.2000112866,-1.1700000000,4.8852543263,0.0000000000,-0.0227780446,164.2372836840
2026-01-20 17:47:16.127113,24.9950000000,0.6364294070,12.5870000000,6.0000000000,0.2059490000,1.6223570000,35.7281677291,-78.6991527619,10.0000000000,0.0415996058,0.2004222383,-1.1700000000,4.8831329198,0.0000000000,-0.0227533790,164.3433540104
2026-01-20 17:47:16.144746,24.9950000000,2.1060479470,12.5870000000,6.0000000000,0.1244720000,1.4774380000,35.7281675461,-78.6991518169,10.0000000000,0.0416163179,0.2004904190,-1.1700000000,4.8827809582,0.0000000000,-0.0227492867,164.3609520882
2026-01-20 17:47:16.259094,24.9950000000,1.7194280470,12.5870000000,6.0000000000,0.1143450000,1.5791030000,35.7281663592,-78.6991456886,10.0000000000,0.0417246938,0.2009325632,-1.1700000000,4.8804985300,0.0000000000,-0.0227227489,164.4750734988
2026-01-20 17:47:16.283837,24.9950000000,0.8363877690,12.5870000000,6.0000000000,0.1567120000,1.7914280000,35.7281661024,-78.6991443625,10.0000000000,0.0417481445,0.2010282355,-1.1700000000,4.8800046525,0.0000000000,-0.0227170066,164.4997673739
2026-01-20 17:47:16.396716,24.9950000000,1.1612137320,12.5870000000,6.0000000000,0.1128750000,1.9247930000,35.7281649308,-78.6991383129,10.0000000000,0.0418551282,0.2014646999,-1.1700000000,4.8777515446,0.0000000000,-0.0226908097,164.6124227678
2026-01-20 17:47:16.582824,24.9950000000,0.2024934730,12.5870000000,6.0000000000,0.3236450000,1.6495550000,35.7281629991,-78.6991283387,10.0000000000,0.0420315162,0.2021843146,-1.1700000000,4.8740367633,0.0000000000,-0.0226476179,164.7981618326
2026-01-20 17:47:16.592274,24.9950000000,0.6702393130,12.5870000000,6.0000000000,0.1955600000,2.0495840000,35.7281629010,-78.6991278323,10.0000000000,0.0420404726,0.2022208544,-1.1700000000,4.8738481382,0.0000000000,-0.0226454248,164.8075930881
2026-01-20 17:47:16.720083,24.9950000000,1.0254660960,12.5870000000,6.0000000000,0.1278170000,2.2118380000,35.7281615745,-78.6991209825,10.0000000000,0.0421616065,0.2027150476,-1.1700000000,4.8712970237,0.0000000000,-0.0226157630,164.9351488130
2026-01-20 17:47:16.986216,24.9950000000,0.1624244710,12.5870000000,6.0000000000,0.4034860000,1.7757720000,35.7281587937,-78.6991066875,10.0000000000,0.0420514548,0.2024226187,-1.1700000000,4.8720060374,0.0000000000,-0.0227448107,165.2006037357
2026-01-20 17:47:17.069994,24.9950000000,0.1874497670,12.5870000000,6.0000000000,0.3496190000,2.4380000000,35.7281579164,-78.6991021842,10.0000000000,0.0419799279,0.2021961803,-1.1700000000,4.8728415301,0.0000000000,-0.0228048386,165.2841530110
2026-01-20 17:47:17.233107,24.9950000000,0.8021345870,12.5870000000,6.0000000000,0.1634040000,2.6825340000,35.7281562084,-78.6990934164,10.0000000000,0.0418406673,0.2017553125,-1.1700000000,4.8744682056,0.0000000000,-0.0229217107,165.4468205587
2026-01-20 17:47:23.690105,24.9950000000,0.0097759640,12.5870000000,6.0000000000,6.7037890000,0.9894480000,35.7280883632,-78.6987443246,10.0000000000,0.0425603411,0.2032665501,-1.1700000000,4.8880868071,0.0000000000,-0.0223086880,170.9362269021
2026-01-20 17:47:23.854128,24.9950993289,1.5973189530,12.5870000000,6.0000000000,0.1641150000,0.1386610000,35.7280866570,-78.6987355561,10.0000000000,0.0426309136,0.2032776219,-1.1700000000,4.8900000000,0.0000000000,-0.0222700594,171.0993288529
2026-01-20 17:47:23.982854,24.9952272722,2.0362596900,12.5870000000,6.0000000000,0.1287380000,0.2790330000,35.7280853136,-78.6987286728,10.0000000000,0.0427508309,0.2033353432,-1.1700000000,4.8900000000,0.0000000000,-0.0222749878,171.2272722300
2026-01-20 17:47:24.099088,24.9953427998,2.8215924840,12.5870000000,6.0000000000,0.1161330000,0.3866040000,35.7280841006,-78.6987224574,10.0000000000,0.0428591112,0.2033874632,-1.1700000000,4.8900000000,0.0000000000,-0.0222794378,171.3427997548
