time,Altitude,Bandwidth(MBits/sec),BatteryVolts,GPSFix,Interval(sec),Latency(sec),Latitude,Longitude,NumberOfSatellites,Pitch,Roll,VelocityX,VelocityY,VelocityZ,Yaw,num
2026-01-20 17:44:41.019505,-0.0170000000,0.0325075660,12.5870000000,6.0000000000,2.0160230000,1.1247370000,35.7273023000,-78.6962747000,10.0000000000,0.0010612324,0.0013059790,-0.0100000000,0.0100000000,0.0000000000,-0.0172853739,18.0194570941
2026-01-20 17:44:41.158989,-0.0170000000,0.4707978330,12.5870000000,6.0000000000,0.1392020000,2.1648490000,35.7273023000,-78.6962747000,10.0000000000,0.0010452472,0.0012892853,-0.0100000000,0.0100000000,0.0000000000,-0.0172051154,18.1579957334
2026-01-20 17:44:41.626321,-0.0170000000,0.1402001510,12.5870000000,6.0000000000,0.4674460000,2.4556720000,35.7273023000,-78.6962747000,10.0000000000,0.0009916899,0.0012333542,-0.0100000000,0.0100000000,0.0000000000,-0.0169362152,18.6221596731
2026-01-20 17:44:42.416350,-0.0170000000,0.0829248420,12.5870000000,6.0000000000,0.7903060000,3.0620430000,35.7273023000,-78.6962747000,10.0000000000,0.0009244008,0.0011612109,-0.0100000000,0.0100000000,0.0000000000,-0.0164892728,19.4068713298
2026-01-20 17:44:42.617361,-0.0170000000,0.6520508420,12.5870000000,6.0000000000,0.2010150000,3.5386840000,35.7273023000,-78.6962747000,10.0000000000,0.0009127741,0.0011481504,-0.0100000000,0.0100000000,0.0000000000,-0.0163773595,19.6065383138
2026-01-20 17:44:42.725119,-0.0170000000,0.6082283830,12.5870000000,6.0000000000,0.1077490000,3.6870750000,35.7273023000,-78.6962747000,10.0000000000,0.0009065413,0.0011411489,-0.0100000000,0.0100000000,0.0000000000,-0.0163173649,19.7135759228
2026-01-20 17:44:43.544317,-0.0170000000,0.0799993160,12.5870000000,6.0000000000,0.8192070000,4.1329770000,35.7273023000,-78.6962747000,10.0000000000,0.0008753727,0.0011060620,-0.0100000000,0.0100000000,0.0000000000,-0.0158684776,20.5277637442
2026-01-20 17:44:45.074314,0.0020000000,0.0428342390,12.5870000000,6.0000000000,1.5299910000,5.2675890000,35.7273023000,-78.6962747000,10.0000000000,0.0008780975,0.0011075806,-0.0095299214,0.0095299214,0.0000000000,-0.0150664063,22.0470078563
2026-01-20 17:45:15.388134,24.9969103595,0.0021619180,12.5870000000,6.0000000000,30.3138270000,3.0840890000,35.7274264244,-78.6966608469,10.0000000000,-0.0094676322,-0.0674672304,1.5516532624,-3.9823170885,0.0000000000,-0.0004625406,50.6367865067
2026-01-20 17:45:16.066113,24.9989361941,0.1933295180,12.5870000000,6.0000000000,0.6779720000,0.4037300000,35.7274350767,-78.6966880918,10.0000000000,0.0172793082,0.0106002122,1.2383644186,-3.2055920169,0.0000000000,-0.0018363284,51.3120646934
2026-01-20 17:45:16.222069,24.9994030951,0.4201672050,12.5870000000,6.0000000000,0.1559760000,0.8789660000,35.7274367108,-78.6966932744,10.0000000000,0.0220380737,0.0260199622,1.1527658923,-2.9939302064,0.0000000000,-0.0017181274,51.4676983777
2026-01-20 17:45:16.381013,24.9998789418,0.8282904880,12.5870000000,6.0000000000,0.1582440000,1.0295680000,35.7274383763,-78.6966985563,10.0000000000,0.0268880145,0.0417351463,1.0655273445,-2.7782130699,0.0000000000,-0.0015976616,51.6263139192
2026-01-20 17:45:16.578131,25.0004690736,0.3313262450,12.5870000000,6.0000000000,0.1977990000,1.1966010000,35.7274404418,-78.6967051067,10.0000000000,0.0329027770,0.0612246829,0.9573365107,-2.5106866447,0.0000000000,-0.0014482633,51.8230245260
2026-01-20 17:45:16.689215,25.0008016370,0.5902229910,12.5870000000,6.0000000000,0.1110360000,1.3435190000,35.7274416057,-78.6967087982,10.0000000000,0.0362923417,0.0722078343,0.8963665487,-2.3599245569,0.0000000000,-0.0013640713,51.9338790023
2026-01-20 17:45:18.046016,25.0040000000,0.0483004630,12.5870000000,6.0000000000,1.3568400000,1.0523960000,35.7274475729,-78.6967279052,10.0000000000,0.0393103326,0.0992142691,0.1521943364,-0.4309914654,0.0000000000,-0.0008607217,53.2881691244
2026-01-20 17:45:19.198893,25.0026830517,0.1136898460,12.5870000000,6.0000000000,1.1528910000,1.1092260000,35.7274477805,-78.6967284342,10.0000000000,0.0064335048,0.0122248273,-0.0443898278,0.1275593111,0.0000000000,-0.0029122109,54.4389827784
2026-01-20 17:45:19.381923,25.0021349160,0.7161113020,12.5870000000,6.0000000000,0.1830330000,1.9028290000,35.7274476892,-78.6967280323,10.0000000000,0.0027923166,0.0004463753,-0.0462169468,0.1348677873,0.0000000000,-0.0029421832,54.6216946827
2026-01-20 17:45:20.028982,25.0004660765,0.1012858560,12.5870000000,6.0000000000,0.6470400000,2.3102620000,35.7274479004,-78.6967294425,10.0000000000,-0.0215847685,-0.0989526106,0.0861504801,-0.4373157963,0.0000000000,-0.0001638396,55.2669617256
2026-01-20 17:45:20.258049,25.0000098791,0.2860834640,12.5870000000,6.0000000000,0.2290800000,2.7383830000,35.7274482426,-78.6967313585,10.0000000000,-0.0359715727,-0.1630444540,0.2024808327,-0.9391330039,0.0000000000,0.0022630697,55.4950604563
2026-01-20 17:45:20.719963,24.9990899564,0.1418921260,12.5870000000,6.0000000000,0.4618720000,3.0738590000,35.7274489325,-78.6967352222,10.0000000000,-0.0649825781,-0.2922857217,0.4370611079,-1.9510479164,0.0000000000,0.0071569348,55.9550217802
2026-01-20 17:45:21.140047,25.0016106866,0.1559890700,12.5870000000,6.0000000000,0.4201320000,3.5023600000,35.7274514988,-78.6967486161,10.0000000000,-0.0640627681,-0.3013955751,0.6502071648,-2.8481241817,0.0000000000,0.0063784776,56.3729552251
2026-01-20 17:45:21.314950,25.0028286060,0.7494625130,12.5870000000,6.0000000000,0.1748880000,3.7940940000,35.7274526645,-78.6967546883,10.0000000000,-0.0623102147,-0.2997495970,0.7389412946,-3.2204595499,0.0000000000,0.0057920645,56.5469437149
2026-01-20 17:45:41.899879,25.0000000000,0.0031836890,12.5870000000,6.0000000000,20.5849270000,2.1522150000,35.7276418688,-78.6977621720,10.0000000000,0.0180937649,0.0683477092,0.1234424505,-0.5814055499,0.0000000000,-0.0079283213,75.5698882881
2026-01-20 17:45:42.043390,25.0000000000,0.9140051880,12.5870000000,6.0000000000,0.1434040000,0.4903860000,35.7276419926,-78.6977628202,10.0000000000,0.0158249105,0.0598679663,0.0957685456,-0.4474055894,0.0000000000,-0.0081213934,75.6427143536
2026-01-20 17:45:42.181013,25.0000000000,1.4274782000,12.5870000000,6.0000000000,0.1377310000,0.6267330000,35.7276421113,-78.6977634417,10.0000000000,0.0136491431,0.0517361320,0.0692300513,-0.3189034064,0.0000000000,-0.0083065440,75.7125524965
2026-01-20 17:45:42.311947,25.0000000000,1.5015580130,12.5870000000,6.0000000000,0.1309360000,0.7438400000,35.7276422243,-78.6977640331,10.0000000000,0.0115791267,0.0439995369,0.0439814328,-0.1966469377,0.0000000000,-0.0084826956,75.7789962295
2026-01-20 17:45:42.447791,25.0000000000,1.4484587730,12.5870000000,6.0000000000,0.1357360000,0.8609170000,35.7276423415,-78.6977646466,10.0000000000,0.0094314837,0.0359728164,0.0177859806,-0.0698058006,0.0000000000,-0.0086654529,75.8479316301
2026-01-20 17:45:42.560008,25.0000000000,1.1672217570,12.5870000000,6.0000000000,0.1122940000,0.9727410000,35.7276424383,-78.6977651534,10.0000000000,0.0076573787,0.0293421774,-0.0038533159,0.0349739505,0.0000000000,-0.0088164234,75.9048771470
2026-01-20 17:45:42.815921,24.9997949010,0.5121020200,12.5870000000,6.0000000000,0.2559490000,1.1156580000,35.7276425932,-78.6977659248,10.0000000000,0.0002954810,-0.0006831819,-0.0283777261,0.1573579358,0.0000000000,-0.0084733607,76.0683663171
2026-01-20 17:45:43.926923,24.9973539382,0.0589883520,12.5870000000,6.0000000000,1.1109990000,1.7887890000,35.7276431548,-78.6977683332,10.0000000000,-0.0625171738,-0.2730472009,0.2326420741,-1.0024227334,0.0000000000,0.0004268613,77.1769690934
2026-01-20 17:45:44.338408,24.9981719623,0.3185364120,12.5870000000,6.0000000000,0.4114820000,2.4745630000,35.7276446681,-78.6977762680,10.0000000000,-0.0691625468,-0.3057246302,0.4698690694,-2.0249528852,0.0000000000,0.0022498147,77.5859811541
2026-01-20 17:45:44.454918,24.9984035819,0.5624538700,12.5870000000,6.0000000000,0.1165180000,2.7614650000,35.7276450966,-78.6977785147,10.0000000000,-0.0710441518,-0.3149770851,0.5370387369,-2.3144773144,0.0000000000,0.0027659750,77.7017909257
2026-01-20 17:45:44.626508,24.9987446998,0.7653794720,12.5870000000,6.0000000000,0.1712510000,2.8973210000,35.7276457277,-78.6977818236,10.0000000000,-0.0738152874,-0.3286036469,0.6359629295,-2.7408746963,0.0000000000,0.0035261507,77.8723498785
2026-01-20 17:45:44.819965,24.9993247924,0.6763575190,12.5870000000,6.0000000000,0.1937910000,3.0597980000,35.7276467457,-78.6977871322,10.0000000000,-0.0737796640,-0.3321797264,0.7327354679,-3.1548393803,0.0000000000,0.0034328837,78.0649584796
2026-01-20 17:45:48.254042,24.9949721441,0.0381679880,12.5870000000,6.0000000000,3.4340820000,2.2285180000,35.7276799065,-78.6979615798,10.0000000000,-0.0330634388,-0.2079848842,1.1100000000,-4.9148607203,0.0000000000,-0.0083868762,81.4860720345
2026-01-20 17:45:48.416565,24.9952953460,1.2096720610,12.5870000000,6.0000000000,0.1625300000,0.3346850000,35.7276815710,-78.6979705163,10.0000000000,-0.0328276446,-0.2066982506,1.1100000000,-4.9164767299,0.0000000000,-0.0082704948,81.6476729875
2026-01-20 17:45:48.564005,24.9955885535,0.8924415640,12.5870000000,6.0000000000,0.1468690000,0.4747620000,35.7276830811,-78.6979786235,10.0000000000,-0.0326137329,-0.2055310216,1.1100000000,-4.9179427675,0.0000000000,-0.0081649141,81.7942767469
2026-01-20 17:45:48.702058,24.9958630930,0.9455694470,12.5870000000,6.0000000000,0.1386170000,0.6013390000,35.7276844949,-78.6979862145,10.0000000000,-0.0324134407,-0.2044381080,1.1100000000,-4.9193154649,0.0000000000,-0.0080660554,81.9315464925
2026-01-20 17:45:49.375810,24.9972083878,0.0972703570,12.5870000000,6.0000000000,0.6737510000,0.4288030000,35.7276913628,-78.6980231702,10.0000000000,-0.0325059146,-0.2020493138,1.1100000000,-4.9018741829,0.0000000000,-0.0080409877,82.6041939038
2026-01-20 17:45:49.544809,24.9975459866,1.1634642130,12.5870000000,6.0000000000,0.1689850000,0.2534150000,35.7276930845,-78.6980324373,10.0000000000,-0.0325596548,-0.2015341991,1.1100000000,-4.8968102009,0.0000000000,-0.0080477573,82.7729933030
2026-01-20 17:45:49.657094,24.9977702913,1.1699201140,12.5870000000,6.0000000000,0.1120350000,0.3776770000,35.7276942285,-78.6980385945,10.0000000000,-0.0325953604,-0.2011919506,1.1100000000,-4.8934456298,0.0000000000,-0.0080522552,82.8851456723
2026-01-20 17:45:50.067750,24.9980000000,0.3189666290,12.5870000000,6.0000000000,0.4109270000,0.5748290000,35.7276984391,-78.6980609805,10.0000000000,-0.0325849008,-0.2008968457,1.1070494575,-4.8811483726,0.0000000000,-0.0082895195,83.2950542466
2026-01-20 17:45:50.187684,24.9980000000,1.0929497600,12.5870000000,6.0000000000,0.1199250000,0.8651030000,35.7276996718,-78.6980675033,10.0000000000,-0.0325658253,-0.2009193137,1.1058525967,-4.8775577900,0.0000000000,-0.0083838951,83.4147403348
2026-01-20 17:45:50.317845,24.9980000000,1.0072156950,12.5870000000,6.0000000000,0.1301330000,0.9815910000,35.7277010097,-78.6980745824,10.0000000000,-0.0325451233,-0.2009436976,1.1045536805,-4.8736610414,0.0000000000,-0.0084863181,83.5446319540
2026-01-20 17:45:50.642054,24.9980000000,0.6065658230,12.5870000000,6.0000000000,0.3241330000,1.1440880000,35.7277043422,-78.6980922153,10.0000000000,-0.0324935581,-0.2010044337,1.1013182987,-4.8639548962,0.0000000000,-0.0087414366,83.8681701269
2026-01-20 17:45:50.919687,24.9981446269,0.4719318780,12.5870000000,6.0000000000,0.2777350000,1.4461280000,35.7277071607,-78.6981071809,10.0000000000,-0.0325283381,-0.2015182792,1.1000000000,-4.8614462694,0.0000000000,-0.0087190990,84.1446269396
2026-01-20 17:45:51.043781,24.9982679512,1.0574330590,12.5870000000,6.0000000000,0.1239530000,1.6608840000,35.7277084063,-78.6981138158,10.0000000000,-0.0325759113,-0.2019353359,1.1000000000,-4.8626795123,0.0000000000,-0.0086114115,84.2679512252
2026-01-20 17:45:51.148785,24.9983723035,0.6232679340,12.5870000000,6.0000000000,0.1051490000,1.7635610000,35.7277094603,-78.6981194299,10.0000000000,-0.0326161660,-0.2022882333,1.1000000000,-4.8637230352,0.0000000000,-0.0085202906,84.3723035223
2026-01-20 17:45:51.255570,24.9984784260,1.2300531170,12.5870000000,6.0000000000,0.1065580000,1.8576480000,35.7277105321,-78.6981251393,10.0000000000,-0.0326571036,-0.2026471172,1.1000000000,-4.8647842602,0.0000000000,-0.0084276238,84.4784260159
2026-01-20 17:45:51.396644,24.9986186249,1.3913338850,12.5870000000,6.0000000000,0.1413090000,1.9709430000,35.7277119481,-78.6981326820,10.0000000000,-0.0327111864,-0.2031212403,1.1000000000,-4.8661862492,0.0000000000,-0.0083052014,84.6186249201
2026-01-20 17:45:51.502203,24.9987235288,1.2419765950,12.5870000000,6.0000000000,0.1055350000,2.0752450000,35.7277130076,-78.6981383258,10.0000000000,-0.0327516538,-0.2034760030,1.1000000000,-4.8672352878,0.0000000000,-0.0082135988,84.7235287817
2026-01-20 17:45:51.616715,24.9988373304,1.1448836090,12.5870000000,6.0000000000,0.1144850000,2.1804150000,35.7277141570,-78.6981444484,10.0000000000,-0.0327955537,-0.2038608561,1.1000000000,-4.8683733044,0.0000000000,-0.0081142266,84.8373304378
2026-01-20 17:45:51.910621,24.9992587980,0.6688552700,12.5870000000,6.0000000000,0.2939470000,2.3364740000,35.7277171069,-78.6981602134,10.0000000000,-0.0328731484,-0.2040926676,1.1000000000,-4.8687060099,0.0000000000,-0.0079894166,85.1293990066
2026-01-20 17:46:17.330853,25.0005518570,0.0051562080,12.5870000000,6.0000000000,25.4202300000,2.2724390000,35.7279327393,-78.6992954555,10.0000000000,-0.0352478051,-0.2024249369,1.1300000000,-4.8600000000,0.0000000000,-0.0130610591,108.5518569571
2026-01-20 17:46:23.119753,25.0006921419,0.0113209760,12.5870000000,6.0000000000,5.7889000000,1.6267970000,35.7279933017,-78.6996108859,10.0000000000,-0.0354762871,-0.2021697671,1.1300000000,-4.8500000000,0.0000000000,-0.0132130780,114.3078581361
2026-01-20 17:46:24.029919,25.0002135417,0.0720049220,12.5870000000,6.0000000000,0.9101600000,1.4038600000,35.7280026995,-78.6996598885,10.0000000000,-0.0342705903,-0.1998169365,1.1300000000,-4.8478645827,0.0000000000,-0.0127311937,115.2135417330
2026-01-20 17:46:24.232780,25.0004153536,0.3230602390,12.5870000000,6.0000000000,0.2028600000,1.2753510000,35.7280047781,-78.6996707460,10.0000000000,-0.0346117442,-0.2000924861,1.1300000000,-4.8458464640,0.0000000000,-0.0125109783,115.4153535998
2026-01-20 17:46:25.718931,25.0010000000,0.0440986970,12.5870000000,6.0000000000,1.4861210000,1.4673420000,35.7280201172,-78.6997506674,10.0000000000,-0.0337426499,-0.1974905179,1.1210411421,-4.8310411421,0.0000000000,-0.0134067427,116.8958857903
2026-01-20 17:46:43.509195,24.9994532876,0.0036838060,12.5870000000,6.0000000000,17.7902940000,1.3130680000,35.7281355773,-78.7003451453,10.0000000000,0.0118439694,0.0399288370,-0.0396020581,0.0812109763,0.0000000000,-0.0237036193,132.7733562007
2026-01-20 17:46:45.366810,24.9972415593,0.0352795130,12.5870000000,6.0000000000,1.8576220000,0.8770250000,35.7281451359,-78.7003377683,10.0000000000,-0.2801891672,0.0852069412,1.9995335219,0.7172989734,0.0000000000,-0.0362042964,134.6207796459
2026-01-20 17:46:45.514307,24.9975353504,1.3329988540,12.5870000000,6.0000000000,0.1474930000,0.7690140000,35.7281473687,-78.7003366960,10.0000000000,-0.2973506259,0.0915718328,2.3638345518,0.8113121424,0.0000000000,-0.0376643000,134.7676752225
2026-01-20 17:46:45.625200,24.9977562323,1.1842856630,12.5870000000,6.0000000000,0.1106760000,0.7022930000,35.7281490474,-78.7003358898,10.0000000000,-0.3102531739,0.0963571672,2.6377280239,0.8819943288,0.0000000000,-0.0387619786,134.8781161387
2026-01-20 17:46:47.474752,24.9986572026,0.0354293650,12.5870000000,6.0000000000,1.8497650000,0.8138930000,35.7282155205,-78.7003101811,10.0000000000,-0.2196819432,0.0567937598,4.6443778682,1.4234279745,0.0000000000,-0.0308106459,136.7237995749
2026-01-20 17:46:47.604150,24.9978818379,1.5191821790,12.5870000000,6.0000000000,0.1294170000,0.9187530000,35.7282208447,-78.7003081781,10.0000000000,-0.2179548202,0.0557538295,4.6844383759,1.4311816211,0.0000000000,-0.0306273588,136.8530270189
2026-01-20 17:46:47.727157,24.9971447689,0.5333116330,12.5870000000,6.0000000000,0.1228850000,0.8947300000,35.7282259059,-78.7003062740,10.0000000000,-0.2163130009,0.0547652620,4.7225202728,1.4385523109,0.0000000000,-0.0304531243,136.9758718476
2026-01-20 17:46:49.455961,24.9937015871,0.0379057230,12.5870000000,6.0000000000,1.7289210000,0.8881320000,35.7283014295,-78.7002786746,10.0000000000,-0.1372935373,0.0292612461,4.6805714949,1.3968571650,0.0000000000,-0.0274841391,138.7015870559
2026-01-20 17:46:49.568006,24.9938133981,0.5849391730,12.5870000000,6.0000000000,0.1120390000,0.9110140000,35.7283063268,-78.7002768856,10.0000000000,-0.1261723511,0.0257009290,4.6503825243,1.3867941748,0.0000000000,-0.0270429153,138.8133980582
2026-01-20 17:46:49.732091,24.9939771407,1.9996216540,12.5870000000,6.0000000000,0.1638710000,0.8818010000,35.7283134988,-78.7002742657,10.0000000000,-0.1098858324,0.0204869914,4.6061720210,1.3720573403,0.0000000000,-0.0263967612,138.9771406631
2026-01-20 17:46:50.117746,24.9929145980,0.1699466060,12.5870000000,6.0000000000,0.3856270000,0.4155280000,35.7283278866,-78.7002690881,10.0000000000,-0.0649748643,0.0081422285,4.1730752102,1.2361337523,0.0000000000,-0.0261164666,139.3618006693
2026-01-20 17:46:50.299239,24.9923715408,2.1657991710,12.5870000000,6.0000000000,0.1815570000,0.0770550000,35.7283345843,-78.7002666805,10.0000000000,-0.0436422306,0.0023299815,3.9594727149,1.1691566987,0.0000000000,-0.0260213602,139.5428197331
2026-01-20 17:46:50.415449,24.9920238206,3.3780572670,12.5870000000,6.0000000000,0.1164030000,0.1998410000,35.7283388729,-78.7002651389,10.0000000000,-0.0299829201,-0.0013916071,3.8227027862,1.1262712126,0.0000000000,-0.0259604634,139.6587264524
2026-01-20 17:46:50.524715,24.9916968789,2.4015977430,12.5870000000,6.0000000000,0.1091540000,0.2934920000,35.7283429052,-78.7002636895,10.0000000000,-0.0171398355,-0.0048908084,3.6941056822,1.0859483919,0.0000000000,-0.0259032056,139.7677070490
2026-01-20 17:46:50.704799,24.9911580377,1.8184946140,12.5870000000,6.0000000000,0.1801930000,0.4050580000,35.7283495509,-78.7002613006,10.0000000000,0.0040271819,-0.0106579320,3.4821614936,1.0194913158,0.0000000000,-0.0258088376,139.9473207681
2026-01-20 17:46:50.887579,24.9912595202,0.7176050630,12.5870000000,6.0000000000,0.1826520000,0.5617650000,35.7283546661,-78.7002594581,10.0000000000,0.0244124679,-0.0160022401,3.2175742667,0.9403103607,0.0000000000,-0.0262449103,140.1297600854
2026-01-20 17:46:51.003877,24.9914917539,3.3870192510,12.5870000000,6.0000000000,0.1160950000,0.6805330000,35.7283574994,-78.7002584363,10.0000000000,0.0370990282,-0.0192710302,3.0364319306,0.8868965949,0.0000000000,-0.0266599009,140.2458769676
2026-01-20 17:46:51.109323,24.9917023168,1.8588609030,12.5870000000,6.0000000000,0.1057680000,0.8123580000,35.7283600683,-78.7002575098,10.0000000000,0.0486017441,-0.0222347937,2.8721928631,0.8384671263,0.0000000000,-0.0270361666,140.3511584211
2026-01-20 17:46:51.223880,24.9919310734,4.5770956650,12.5870000000,6.0000000000,0.1145460000,0.8696730000,35.7283628591,-78.7002565033,10.0000000000,0.0610983509,-0.0254546408,2.6937627375,0.7858531149,0.0000000000,-0.0274449436,140.4655367067
2026-01-20 17:46:51.327297,24.9921375850,5.0690618690,12.5870000000,6.0000000000,0.1034290000,0.9458140000,35.7283653785,-78.7002555946,10.0000000000,0.0723797522,-0.0283613809,2.5326836626,0.7383554390,0.0000000000,-0.0278139700,140.5687925240
2026-01-20 17:46:51.698348,24.9928785298,0.7065247570,12.5870000000,6.0000000000,0.3710330000,0.9676900000,35.7283744181,-78.7002523345,10.0000000000,0.1128563836,-0.0387904972,1.9547467443,0.5679381426,0.0000000000,-0.0291380027,140.9392649075
2026-01-20 17:46:52.084741,24.9949489448,0.1696483350,12.5870000000,6.0000000000,0.3863050000,0.8705120000,35.7283789533,-78.7002506956,10.0000000000,0.1132452392,-0.0373802417,1.3630190693,0.3970773794,0.0000000000,-0.0291261998,141.3248241377
2026-01-20 17:46:53.029481,24.9984650771,0.1387226950,12.5870000000,6.0000000000,0.9448490000,1.0491900000,35.7283853535,-78.7002483465,10.0000000000,0.0797103796,-0.0242827853,0.1962692747,0.0652300114,0.0000000000,-0.0281930324,142.2674614506
2026-01-20 17:46:53.367794,24.9977898812,0.1938751360,12.5870000000,6.0000000000,0.3380320000,1.2725320000,35.7283854210,-78.7002482790,10.0000000000,0.0537713044,-0.0159365926,0.0274702920,0.0213422759,0.0000000000,-0.0276156218,142.6050594159
2026-01-20 17:46:53.907327,24.9965695901,0.1214054550,12.5870000000,6.0000000000,0.5398110000,1.0914520000,35.7283851987,-78.7002482861,10.0000000000,0.0228474543,0.0091830066,-0.1743040987,-0.0070448072,0.0000000000,-0.0267795530,143.1434699552
2026-01-20 17:46:54.314843,24.9953494753,0.1608245400,12.5870000000,6.0000000000,0.4075000000,0.9826130000,35.7283843446,-78.7002485301,10.0000000000,0.0212064045,0.0527131373,-0.1865052469,0.0580279834,0.0000000000,-0.0263243385,143.5501748961
2026-01-20 17:46:56.080444,24.9988020048,0.0371178190,12.5870000000,6.0000000000,1.7656210000,1.1941730000,35.7283767848,-78.7002227089,10.0000000000,0.0726122864,0.2997585783,-0.8238735634,3.1421943338,-0.0068866613,-0.0147430145,145.3113338684
2026-01-20 17:46:56.258643,25.0004036915,0.3678243500,12.5870000000,6.0000000000,0.1781720000,1.3560690000,35.7283752899,-78.7002156259,10.0000000000,0.0693470035,0.2884926425,-0.9003985930,3.4749892302,-0.0051070095,-0.0157218817,145.4892990536
2026-01-20 17:46:56.487085,25.0024569724,0.2868749120,12.5870000000,6.0000000000,0.2284480000,1.3193770000,35.7283733735,-78.7002065458,10.0000000000,0.0651610769,0.2740502853,-0.9984997915,3.9016153724,-0.0028255862,-0.0169767397,145.7174413756
2026-01-20 17:46:56.637581,25.0038096589,0.4354348970,12.5870000000,6.0000000000,0.1505070000,1.3188520000,35.7283721110,-78.7002005640,10.0000000000,0.0624034189,0.2645357656,-1.0631281467,4.1826735684,-0.0013226012,-0.0178034310,145.8677398762
2026-01-20 17:46:57.709581,25.0031264474,0.0611337010,12.5870000000,6.0000000000,1.0720110000,1.3676120000,35.7283614449,-78.7001477118,10.0000000000,0.0479448869,0.2246424316,-1.1855743421,4.7578717103,0.0000000000,-0.0209398176,146.9367763152
2026-01-20 17:47:14.449876,24.9950000000,0.0039148720,12.5870000000,6.0000000000,16.7402680000,0.7261950000,35.7281852241,-78.6992430144,10.0000000000,0.0424541014,0.2041168581,-1.1700000000,4.8834151656,0.0000000000,-0.0222190076,162.6707582810
2026-01-20 17:47:14.557029,24.9950000000,0.6120626860,12.5870000000,6.0000000000,0.1070740000,0.1098240000,35.7281841159,-78.6992373133,10.0000000000,0.0425902316,0.2043883157,-1.1700000000,4.8855464322,0.0000000000,-0.0222196799,162.7773216076
2026-01-20 17:47:14.678494,24.9950000000,3.2381313150,12.5870000000,6.0000000000,0.1214330000,0.2010010000,35.7281828596,-78.6992308507,10.0000000000,0.0427445437,0.2046960300,-1.1700000000,4.8879623567,0.0000000000,-0.0222204419,162.8981178353
2026-01-20 17:47:14.894778,24.9950000000,0.6056623740,12.5870000000,6.0000000000,0.2164110000,0.3263800000,35.7281806072,-78.6992192431,10.0000000000,0.0426928101,0.2042894864,-1.1700000000,4.8900000000,0.0000000000,-0.0222906207,163.1135953168
2026-01-20 17:47:15.072739,24.9950000000,1.4730004610,12.5870000000,6.0000000000,0.1779660000,0.4886130000,35.7281787426,-78.6992096182,10.0000000000,0.0424084745,0.2032482212,-1.1700000000,4.8900000000,0.0000000000,-0.0223993250,163.2911767696
2026-01-20 17:47:15.189225,24.9950000000,2.8155798630,12.5870000000,6.0000000000,0.1163810000,0.6308750000,35.7281775222,-78.6992033181,10.0000000000,0.0422223602,0.2025666520,-1.1700000000,4.8900000000,0.0000000000,-0.0224704784,163.4074142479
2026-01-20 17:47:15.339120,24.9950000000,0.9853704010,12.5870000000,6.0000000000,0.1330180000,0.9233480000,35.7281759516,-78.6991952112,10.0000000000,0.0419828665,0.2016896022,-1.1700000000,4.8900000000,0.0000000000,-0.0225620392,163.5569897599
2026-01-20 17:47:15.370013,24.9950000000,1.0877464760,12.5870000000,6.0000000000,0.1807480000,0.7448450000,35.7281756279,-78.6991935403,10.0000000000,0.0419335078,0.2015088457,-1.1700000000,4.8900000000,0.0000000000,-0.0225809095,163.5878166800
2026-01-20 17:47:15.486569,24.9950000000,1.6847300770,12.5870000000,6.0000000000,0.1167000000,0.8890740000,35.7281744067,-78.6991872365,10.0000000000,0.0417472814,0.2008268662,-1.1700000000,4.8900000000,0.0000000000,-0.0226521057,163.7041241527
2026-01-20 17:47:15.538230,24.9950000000,0.6582364930,12.5870000000,6.0000000000,0.1991260000,1.0597260000,35.7281738654,-78.6991844424,10.0000000000,0.0416647404,0.2005245928,-1.1700000000,4.8900000000,0.0000000000,-0.0226836620,163.7556750399
2026-01-20 17:47:15.610378,24.9950000000,1.0592789550,12.5870000000,6.0000000000,0.1237370000,1.0005000000,35.7281731095,-78.6991805403,10.0000000000,0.0415494666,0.2001024487,-1.1700000000,4.8900000000,0.0000000000,-0.0227277323,163.8276691502
2026-01-20 17:47:15.874425,24.9950000000,0.4967407450,12.5870000000,6.0000000000,0.2638640000,1.1371390000,35.7281703519,-78.6991663043,10.0000000000,0.0413601151,0.1994451818,-1.1700000000,4.8881766614,0.0000000000,-0.0228120226,164.0911669294
2026-01-20 17:47:16.020832,24.9950000000,0.4485571920,12.5870000000,6.0000000000,0.1461040000,1.3561540000,35.7281688322,-78.6991584579,10.0000000000,0.0414988756,0.2000112866,-1.1700000000,4.8852543263,0.0000000000,-0.0227780446,164.2372836840
2026-01-20 17:47:16.144746,24.9950000000,2.1060479470,12.5870000000,6.0000000000,0.1244720000,1.4774380000,35.7281675461,-78.6991518169,10.0000000000,0.0416163179,0.2004904190,-1.1700000000,4.8827809582,0.0000000000,-0.0227492867,164.3609520882
2026-01-20 17:47:16.259094,24.9950000000,1.7194280470,12.5870000000,6.0000000000,0.1143450000,1.5791030000,35.7281663592,-78.6991456886,10.0000000000,0.0417246938,0.2009325632,-1.1700000000,4.8804985300,0.0000000000,-0.0227227489,164.4750734988
2026-01-20 17:47:16.582824,24.9950000000,0.2024934730,12.5870000000,6.0000000000,0.3236450000,1.6495550000,35.7281629991,-78.6991283387,10.0000000000,0.0420315162,0.2021843146,-1.1700000000,4.8740367633,0.0000000000,-0.0226476179,164.7981618326
2026-01-20 17:47:16.986216,24.9950000000,0.1624244710,12.5870000000,6.0000000000,0.4034860000,1.7757720000,35.7281587937,-78.6991066875,10.0000000000,0.0420514548,0.2024226187,-1.1700000000,4.8720060374,0.0000000000,-0.0227448107,165.2006037357
2026-01-20 17:47:23.690105,24.9950000000,0.0097759640,12.5870000000,6.0000000000,6.7037890000,0.9894480000,35.7280883632,-78.6987443246,10.0000000000,0.0425603411,0.2032665501,-1.1700000000,4.8880868071,0.0000000000,-0.0223086880,170.9362269021
2026-01-20 17:47:23.854128,24.9950993289,1.5973189530,12.5870000000,6.0000000000,0.1641150000,0.1386610000,35.7280866570,-78.6987355561,10.0000000000,0.0426309136,0.2032776219,-1.1700000000,4.8900000000,0.0000000000,-0.0222700594,171.0993288529
2026-01-20 17:47:23.982854,24.9952272722,2.0362596900,12.5870000000,6.0000000000,0.1287380000,0.2790330000,35.7280853136,-78.6987286728,10.0000000000,0.0427508309,0.2033353432,-1.1700000000,4.8900000000,0.0000000000,-0.0222749878,171.2272722300
2026-01-20 17:47:24.099088,24.9953427998,2.8215924840,12.5870000000,6.0000000000,0.1161330000,0.3866040000,35.7280841006,-78.6987224574,10.0000000000,0.0428591112,0.2033874632,-1.1700000000,4.8900000000,0.0000000000,-0.0222794378,171.3427997548
2026-01-20 17:47:24.216167,24.9954591672,2.2372198610,12.5870000000,6.0000000000,0.1171740000,0.4782330000,35.7280828787,-78.6987161968,10.0000000000,0.0429681787,0.2034399621,-1.1700000000,4.8900000000,0.0000000000,-0.0222839202,171.4591671995
2026-01-20 17:47:24.323156,24.9955655060,2.4502187160,12.5870000000,6.0000000000,0.1069880000,0.5708510000,35.7280817622,-78.6987104758,10.0000000000,0.0430678466,0.2034879365,-1.1700000000,4.8900000000,0.0000000000,-0.0222880163,171.5655059862
2026-01-20 17:47:24.436182,24.9956778451,2.8989251120,12.5870000000,6.0000000000,0.1130350000,0.6591830000,35.7280805826,-78.6987044319,10.0000000000,0.0431731385,0.2035386180,-1.1700000000,4.8900000000,0.0000000000,-0.0222923436,171.6778450726
2026-01-20 17:47:24.598706,24.9958393812,1.6226099770,12.5870000000,6.0000000000,0.1615570000,0.7584370000,35.7280788865,-78.6986957413,10.0000000000,0.0433245411,0.2036114947,-1.1700000000,4.8900000000,0.0000000000,-0.0222985659,171.8393811717
2026-01-20 17:47:24.701326,24.9959413776,2.5309093720,12.5870000000,6.0000000000,0.1035770000,0.8755380000,35.7280778155,-78.6986902539,10.0000000000,0.0434201391,0.2036575101,-1.1700000000,4.8900000000,0.0000000000,-0.0223024947,171.9413776161
2026-01-20 17:47:24.912694,24.9958478679,0.6201567990,12.5870000000,6.0000000000,0.2113530000,0.9995530000,35.7280756026,-78.6986789001,10.0000000000,0.0432132332,0.2033089436,-1.1700000000,4.8900000000,0.0000000000,-0.0223714792,172.1521320937
2026-01-20 17:47:25.030651,24.9957301084,1.6684034550,12.5870000000,6.0000000000,0.1178420000,1.1650300000,35.7280743661,-78.6986725528,10.0000000000,0.0430105447,0.2030186600,-1.1700000000,4.8900000000,0.0000000000,-0.0224231295,172.2698915891
2026-01-20 17:47:28.569135,24.9946023515,0.0740812540,12.5870000000,6.0000000000,3.5386010000,1.0065360000,35.7280387071,-78.6984887963,10.0000000000,0.0004813818,0.0350036767,-0.9042116317,3.8288543649,0.0000000000,-0.0275686637,175.7992161790
2026-01-20 17:47:28.712708,24.9941740941,1.8258331880,12.5870000000,6.0000000000,0.1435750000,0.1102510000,35.7280374223,-78.6984821869,10.0000000000,-0.0036021232,0.0180048235,-0.8656684687,3.6732541885,0.0000000000,-0.0278255935,175.9419686344
2026-01-20 17:47:28.866083,24.9938105335,0.4272619400,12.5870000000,6.0000000000,0.1533860000,0.2433660000,35.7280363127,-78.6984764496,10.0000000000,-0.0076060097,0.0007857866,-0.8158960340,3.4707421387,0.0000000000,-0.0278561985,176.0947332390
2026-01-20 17:47:28.978143,24.9935870667,1.7548018560,12.5870000000,6.0000000000,0.1120400000,0.3623680000,35.7280356199,-78.6984728518,10.0000000000,-0.0103704952,-0.0113728498,-0.7756720025,3.3064940102,0.0000000000,-0.0277691060,176.2064666597
2026-01-20 17:47:29.197988,24.9931486575,1.1923006950,12.5870000000,6.0000000000,0.2198640000,0.4752840000,35.7280342608,-78.6984657934,10.0000000000,-0.0157940108,-0.0352263138,-0.6967583437,2.9842632370,0.0000000000,-0.0275982433,176.4256712674
2026-01-20 17:47:29.376594,24.9927924865,1.4677551200,12.5870000000,6.0000000000,0.1786020000,0.6320510000,35.7280331567,-78.6984600590,10.0000000000,-0.0202001650,-0.0546052638,-0.6326475777,2.7224776091,0.0000000000,-0.0274594316,176.6037567285
2026-01-20 17:47:29.510520,24.9925254146,1.9573502180,12.5870000000,6.0000000000,0.1339280000,0.8009350000,35.7280323288,-78.6984557592,10.0000000000,-0.0235040843,-0.0691364140,-0.5845746343,2.5261797566,0.0000000000,-0.0273553448,176.7372926826
2026-01-20 17:47:29.715578,24.9921164934,0.9587921470,12.5870000000,6.0000000000,0.2050580000,0.9430120000,35.7280310611,-78.6984491755,10.0000000000,-0.0285628071,-0.0913854626,-0.5109688120,2.2256226491,0.0000000000,-0.0271959746,176.9417532999
2026-01-20 17:47:29.910161,24.9924059386,0.3368507620,12.5870000000,6.0000000000,0.1945550000,1.1443300000,35.7280303211,-78.6984454056,10.0000000000,-0.0301110755,-0.0996028756,-0.4372279785,1.9194400127,0.0000000000,-0.0271789035,177.1353128756
2026-01-20 17:47:30.081033,24.9929153435,1.5338669660,12.5870000000,6.0000000000,0.1709040000,1.2946730000,35.7280298457,-78.6984430284,10.0000000000,-0.0302455240,-0.1019609342,-0.3710053411,1.6426633485,0.0000000000,-0.0272144547,177.3051145101
2026-01-20 17:47:30.186094,24.9932285524,1.8713877780,12.5870000000,6.0000000000,0.1050600000,1.4370650000,35.7280295534,-78.6984415668,10.0000000000,-0.0303281900,-0.1034107925,-0.3302881852,1.4724865176,0.0000000000,-0.0272363134,177.4095174738
2026-01-20 17:47:30.313883,24.9936095172,2.0541463910,12.5870000000,6.0000000000,0.1276170000,1.5301470000,35.7280291978,-78.6984397889,10.0000000000,-0.0304287390,-0.1051742960,-0.2807627615,1.2654956441,0.0000000000,-0.0272629008,177.5365057398
2026-01-20 17:47:30.421021,24.9939289179,1.8323376730,12.5870000000,6.0000000000,0.1072990000,1.6292380000,35.7280288997,-78.6984382984,10.0000000000,-0.0305130392,-0.1066528161,-0.2392406780,1.0919546284,0.0000000000,-0.0272851916,177.6429726206
2026-01-20 17:47:30.535014,24.9942687544,1.7244500580,12.5870000000,6.0000000000,0.1140120000,1.7383360000,35.7280285825,-78.6984367125,10.0000000000,-0.0306027331,-0.1082259351,-0.1950619264,0.9073101027,0.0000000000,-0.0273089086,177.7562514707
2026-01-20 17:47:47.153016,24.9960000000,0.0039436770,12.5870000000,6.0000000000,16.6179920000,0.9205550000,35.7278865312,-78.6977150772,10.0000000000,0.0415813051,0.2002232309,-1.1800000000,4.8826309335,0.0000000000,-0.0261635206,193.3684533266
2026-01-20 17:47:47.270087,24.9960000000,1.6793767940,12.5870000000,6.0000000000,0.1170720000,0.1168320000,35.7278853034,-78.6977087858,10.0000000000,0.0416354820,0.2003960922,-1.1800000000,4.8802921168,0.0000000000,-0.0262498513,193.4853941589
2026-01-20 17:47:47.554871,24.9960000000,0.4604284200,12.5870000000,6.0000000000,0.2846740000,0.2834510000,35.7278823164,-78.6976934814,10.0000000000,0.0417672715,0.2008165913,-1.1800000000,4.8746027597,0.0000000000,-0.0264598576,193.7698620133
2026-01-20 17:47:48.868116,24.9980000000,0.1497009910,12.5870000000,6.0000000000,1.3133380000,0.7560140000,35.7278684439,-78.6976229462,10.0000000000,0.0421782483,0.2011427186,-1.1800000000,4.8700000000,0.0000000000,-0.0264539816,195.0815313363
2026-01-20 17:47:49.164704,24.9980000000,0.4419075880,12.5870000000,6.0000000000,0.2966050000,1.7680110000,35.7278653338,-78.6976071291,10.0000000000,0.0425132565,0.2025431137,-1.1800000000,4.8700000000,0.0000000000,-0.0263782342,195.3777322693
2026-01-20 17:47:49.334647,24.9980000000,0.7712386000,12.5870000000,6.0000000000,0.1699500000,1.9961130000,35.7278635517,-78.6975980660,10.0000000000,0.0427052141,0.2033455312,-1.1800000000,4.8700000000,0.0000000000,-0.0263348313,195.5474535040
2026-01-20 17:47:49.439571,24.9980000000,1.2494709350,12.5870000000,6.0000000000,0.1049020000,2.1281310000,35.7278624515,-78.6975924704,10.0000000000,0.0428237299,0.2038409487,-1.1800000000,4.8700000000,0.0000000000,-0.0263080342,195.6522404640
2026-01-20 17:47:49.731671,24.9980000000,0.2243446230,12.5870000000,6.0000000000,0.2921220000,2.3221510000,35.7278593884,-78.6975768926,10.0000000000,0.0431536688,0.2052201533,-1.1800000000,4.8700000000,0.0000000000,-0.0262334329,195.9439593184
2026-01-20 17:47:50.053595,24.9977373480,0.2035810580,12.5870000000,6.0000000000,0.3219160000,2.6166680000,35.7278560159,-78.6975597693,10.0000000000,0.0430547906,0.2048538454,-1.1826265204,4.8752530409,0.0000000000,-0.0261413228,196.2626520440
2026-01-20 17:47:50.156579,24.9976355872,1.2727661140,12.5870000000,6.0000000000,0.1029820000,2.8208500000,35.7278549372,-78.6975542946,10.0000000000,0.0429919249,0.2046092729,-1.1836441276,4.8772882553,0.0000000000,-0.0261111885,196.3644127628
2026-01-20 17:48:19.662157,24.9933115747,0.0022211400,12.5870000000,6.0000000000,29.5055740000,1.8632470000,35.7274426754,-78.6967248415,10.0000000000,-0.0106565387,0.0055448442,0.1361126090,0.0827299245,0.0000000000,-0.0357337511,223.8961417781
2026-01-20 17:48:22.091952,24.9959610498,0.0269717450,12.5870000000,6.0000000000,2.4298020000,2.0383080000,35.7274314870,-78.6966790319,10.0000000000,0.1247942978,0.2949583474,-1.5149364788,3.8455009534,0.0000000000,-0.0191420027,226.3203499458
2026-01-20 17:48:22.470017,24.9970919153,0.1733284320,12.5870000000,6.0000000000,0.3781030000,3.3947600000,35.7274260588,-78.6966616542,10.0000000000,0.0998821321,0.2451381275,-1.6619489835,4.1696823738,0.0000000000,-0.0260427778,226.6973050858
2026-01-20 17:48:24.097375,24.9923686696,0.0402807660,12.5870000000,6.0000000000,1.6269800000,4.3648530000,35.7274000968,-78.6965805591,10.0000000000,0.0708053977,0.2000933623,-1.8563133042,4.6684098687,0.0000000000,-0.0332782134,228.3156652075
