time,Altitude,Bandwidth(MBits/sec),BatteryVolts,GPSFix,Interval(sec),Latency(sec),Latitude,Longitude,NumberOfSatellites,Pitch,Roll,VelocityX,VelocityY,VelocityZ,Yaw,num
2026-01-20 17:44:35.924172,-0.0170000000,13.6125986630,12.5870000000,6.0000000000,0.1059160000,0.0208460000,35.7273024000,-78.6962748000,10.0000000000,0.0010453987,0.0012975531,-0.0200000000,0.0200000000,0.0000000000,-0.0209048078,12.9471562475
2026-01-20 17:44:36.031167,-0.0170000000,13.4755731680,12.5870000000,6.0000000000,0.1069930000,0.0151160000,35.7273024000,-78.6962748000,10.0000000000,0.0010549801,0.0013073380,-0.0189196529,0.0189196529,0.0000000000,-0.0208264037,13.0540173537
2026-01-20 17:44:36.135185,-0.0170000000,13.2311952010,12.5870000000,6.0000000000,0.1040160000,0.0150930000,35.7273024000,-78.6962748000,10.0000000000,0.0010704287,0.0013236637,-0.0168415077,0.0168415077,0.0000000000,-0.0207495681,13.1579246166
2026-01-20 17:44:36.242138,-0.0170000000,12.8680984750,12.5870000000,6.0000000000,0.1069510000,0.0154360000,35.7273024000,-78.6962748000,10.0000000000,0.0010863131,0.0013404501,-0.0147047189,0.0147047189,0.0000000000,-0.0206705643,13.2647640529
2026-01-20 17:44:36.347260,-0.0170000000,12.4691534200,12.5870000000,6.0000000000,0.1051170000,0.0144290000,35.7273024000,-78.6962748000,10.0000000000,0.0011019256,0.0013569490,-0.0126045197,0.0126045197,0.0000000000,-0.0205929134,13.3697740135
2026-01-20 17:44:36.451265,-0.0170000000,14.4929810390,12.5870000000,6.0000000000,0.1040040000,0.0148370000,35.7273024000,-78.6962748000,10.0000000000,0.0011173722,0.0013732727,-0.0105266302,0.0105266302,0.0000000000,-0.0205160873,13.4736684900
2026-01-20 17:44:36.554358,-0.0170000000,13.3486193150,12.5870000000,6.0000000000,0.1031010000,0.0111360000,35.7273024000,-78.6962748000,10.0000000000,0.0011326833,0.0013894533,-0.0084669638,0.0084669638,0.0000000000,-0.0204399350,13.5766518089
2026-01-20 17:44:36.658235,-0.0170000000,11.3568561000,12.5870000000,6.0000000000,0.1038710000,0.0158440000,35.7273024000,-78.6962748000,10.0000000000,0.0011481109,0.0014057569,-0.0063916367,0.0063916367,0.0000000000,-0.0203632036,13.6804181659
2026-01-20 17:44:36.856896,-0.0170000000,5.9385329460,12.5870000000,6.0000000000,0.1986430000,0.0214420000,35.7273024000,-78.6962748000,10.0000000000,0.0011776156,0.0014369369,-0.0024226411,0.0024226411,0.0000000000,-0.0202164574,13.8788679448
2026-01-20 17:44:36.963219,-0.0170000000,22.8013465480,12.5870000000,6.0000000000,0.1063460000,0.0734500000,35.7273024000,-78.6962748000,10.0000000000,0.0011934065,0.0014536244,-0.0002984444,0.0002984444,0.0000000000,-0.0201379192,13.9850777796
2026-01-20 17:44:37.066583,-0.0170000000,16.5360040370,12.5870000000,6.0000000000,0.1030440000,0.0363740000,35.7273024000,-78.6962748000,10.0000000000,0.0012107252,0.0014716283,-0.0008830800,0.0008830800,0.0000000000,-0.0200610649,14.0883079989
2026-01-20 17:44:37.171072,-0.0170000000,13.7565071370,12.5870000000,6.0000000000,0.1048080000,0.0162990000,35.7273024000,-78.6962748000,10.0000000000,0.0012285683,0.0014901323,-0.0019265754,0.0019265754,0.0000000000,-0.0199832885,14.1926575412
2026-01-20 17:44:37.275185,-0.0170000000,13.2197567860,12.5870000000,6.0000000000,0.1041060000,0.0155180000,35.7273024000,-78.6962748000,10.0000000000,0.0012463472,0.0015085697,-0.0029663152,0.0029663152,0.0000000000,-0.0199057920,14.2966315213
2026-01-20 17:44:37.379084,-0.0170000000,12.6135073230,12.5870000000,6.0000000000,0.1039140000,0.0265690000,35.7273024000,-78.6962748000,10.0000000000,0.0012640896,0.0015269693,-0.0040039203,0.0040039203,0.0000000000,-0.0198284546,14.4003920266
2026-01-20 17:44:37.482242,-0.0170000000,10.8009966170,12.5870000000,6.0000000000,0.1031490000,0.0153570000,35.7273024000,-78.6962748000,10.0000000000,0.0012817055,0.0015452376,-0.0050341240,0.0050341240,0.0000000000,-0.0197516689,14.5034124008
2026-01-20 17:44:37.585271,-0.0170000000,14.6311273320,12.5870000000,6.0000000000,0.1030220000,0.0210270000,35.7273024000,-78.6962748000,10.0000000000,0.0012992993,0.0015634830,-0.0060630392,0.0060630392,0.0000000000,-0.0196749793,14.6063039232
2026-01-20 17:44:37.688131,-0.0170000000,13.3791145760,12.5870000000,6.0000000000,0.1028660000,0.0166820000,35.7273024000,-78.6962748000,10.0000000000,0.0013168643,0.0015816986,-0.0070902671,0.0070902671,0.0000000000,-0.0195984154,14.7090267109
2026-01-20 17:44:37.856901,-0.0170000000,4.2715965990,12.5870000000,6.0000000000,0.1687650000,0.0382470000,35.7273024000,-78.6962748000,10.0000000000,0.0013456844,0.0016115861,-0.0087757157,0.0087757157,0.0000000000,-0.0194727913,14.8775715722
2026-01-20 17:44:37.961360,-0.0170000000,19.4522840650,12.5870000000,6.0000000000,0.1044410000,0.0774340000,35.7273024000,-78.6962748000,10.0000000000,0.0013635224,0.0016300848,-0.0098189095,0.0098189095,0.0000000000,-0.0193950374,14.9818909469
2026-01-20 17:44:38.068187,-0.0170000000,14.1074817960,12.5870000000,6.0000000000,0.1068460000,0.0619360000,35.7273024000,-78.6962748000,10.0000000000,0.0013674656,0.0016325186,-0.0100000000,0.0100000000,0.0000000000,-0.0193161222,15.0880378904
2026-01-20 17:44:38.189001,-0.0170000000,4.8819215680,12.5870000000,6.0000000000,0.1208180000,0.0622600000,35.7273024000,-78.6962748000,10.0000000000,0.0013686190,0.0016314597,-0.0100000000,0.0100000000,0.0000000000,-0.0192270135,15.2079585785
2026-01-20 17:44:38.296467,-0.0170000000,14.6360582520,12.5870000000,6.0000000000,0.1074650000,0.1140610000,35.7273024000,-78.6962748000,10.0000000000,0.0013696450,0.0016305178,-0.0100000000,0.0100000000,0.0000000000,-0.0191477500,15.3146298767
2026-01-20 17:44:38.400568,-0.0170000000,13.8540597670,12.5870000000,6.0000000000,0.1040700000,0.1096220000,35.7273024000,-78.6962748000,10.0000000000,0.0013706388,0.0016296053,-0.0100000000,0.0100000000,0.0000000000,-0.0190709683,15.4179611933
2026-01-20 17:44:38.507765,-0.0170000000,14.0702144140,12.5870000000,6.0000000000,0.1071290000,0.1011390000,35.7273024000,-78.6962748000,10.0000000000,0.0013716622,0.0016286658,-0.0100000000,0.0100000000,0.0000000000,-0.0189919033,15.5243654251
2026-01-20 17:44:38.616022,-0.0170000000,6.6535852400,12.5870000000,6.0000000000,0.1083470000,0.1011240000,35.7273024000,-78.6962748000,10.0000000000,0.0013726957,0.0016277169,-0.0100000000,0.0100000000,0.0000000000,-0.0189120563,15.6318219137
2026-01-20 17:44:38.721359,-0.0170000000,8.7234281260,12.5870000000,6.0000000000,0.1051770000,0.1585600000,35.7273024000,-78.6962748000,10.0000000000,0.0013737013,0.0016267936,-0.0100000000,0.0100000000,0.0000000000,-0.0188343630,15.7363800586
2026-01-20 17:44:38.854336,-0.0170000000,1.4766568530,12.5870000000,6.0000000000,0.1331440000,0.2096930000,35.7273024000,-78.6962748000,10.0000000000,0.0013749708,0.0016256281,-0.0100000000,0.0100000000,0.0000000000,-0.0187362834,15.8683736216
2026-01-20 17:44:39.006046,-0.0170000000,2.5929691980,12.5870000000,6.0000000000,0.1516470000,0.3081120000,35.7273023981,-78.6962747981,10.0000000000,0.0013736746,0.0016217439,-0.0100000000,0.0100000000,0.0000000000,-0.0186252708,16.0189898705
2026-01-20 17:44:39.144961,-0.0170000000,2.8295231310,12.5870000000,6.0000000000,0.1389690000,0.4511680000,35.7273023843,-78.6962747843,10.0000000000,0.0013550430,0.0016019506,-0.0100000000,0.0100000000,0.0000000000,-0.0185292384,16.1570824498
2026-01-20 17:44:39.259491,-0.0170000000,4.5775752180,12.5870000000,6.0000000000,0.1145340000,0.5549770000,35.7273023729,-78.6962747729,10.0000000000,0.0013396819,0.0015856318,-0.0100000000,0.0100000000,0.0000000000,-0.0184500634,16.2709343848
2026-01-20 17:44:39.364605,-0.0170000000,3.7409595570,12.5870000000,6.0000000000,0.1051110000,0.6262780000,35.7273023625,-78.6962747625,10.0000000000,0.0013255838,0.0015706547,-0.0100000000,0.0100000000,0.0000000000,-0.0183773979,16.3754258794
2026-01-20 17:44:39.557289,-0.0170000000,2.3838702970,12.5870000000,6.0000000000,0.1924400000,0.7119470000,35.7273023433,-78.6962747433,10.0000000000,0.0012997405,0.0015432001,-0.0100000000,0.0100000000,0.0000000000,-0.0182441949,16.5669690618
2026-01-20 17:44:40.048808,-0.0170000000,0.6664917450,12.5870000000,6.0000000000,0.4916490000,0.8330130000,35.7273023000,-78.6962747000,10.0000000000,0.0012314419,0.0014715380,-0.0100000000,0.0100000000,0.0000000000,-0.0179071680,17.0555193438
2026-01-20 17:44:40.168849,-0.0170000000,0.5464293160,12.5870000000,6.0000000000,0.1199350000,0.9682680000,35.7273023000,-78.6962747000,10.0000000000,0.0012102428,0.0014509384,-0.0100000000,0.0100000000,0.0000000000,-0.0178301129,17.1747239718
2026-01-20 17:44:40.388610,-0.0170000000,0.5958874530,12.5870000000,6.0000000000,0.2199610000,1.0209650000,35.7273023000,-78.6962747000,10.0000000000,0.0011714333,0.0014132264,-0.0100000000,0.0100000000,0.0000000000,-0.0176890467,17.3929540356
2026-01-20 17:44:40.508589,-0.0170000000,0.5461242310,12.5870000000,6.0000000000,0.1200020000,1.0582530000,35.7273023000,-78.6962747000,10.0000000000,0.0011502451,0.0013926374,-0.0100000000,0.0100000000,0.0000000000,-0.0176120313,17.5120971432
2026-01-20 17:44:40.903570,-0.0170000000,0.4977707560,12.5870000000,6.0000000000,0.3949770000,1.0269000000,35.7273023000,-78.6962747000,10.0000000000,0.0010804919,0.0013248569,-0.0100000000,0.0100000000,0.0000000000,-0.0173584904,17.9043261536
2026-01-20 17:44:41.291421,-0.0170000000,0.1689760260,12.5870000000,6.0000000000,0.3878420000,0.8901780000,35.7273023000,-78.6962747000,10.0000000000,0.0010300702,0.0012734356,-0.0100000000,0.0100000000,0.0000000000,-0.0171289148,18.2895298901
2026-01-20 17:44:41.492948,-0.0170000000,0.9758576870,12.5870000000,6.0000000000,0.2014720000,0.8410900000,35.7273023000,-78.6962747000,10.0000000000,0.0010069748,0.0012493165,-0.0100000000,0.0100000000,0.0000000000,-0.0170129572,18.4896908396
2026-01-20 17:44:41.899257,-0.0170000000,0.3226284450,12.5870000000,6.0000000000,0.4062630000,0.8643550000,35.7273023000,-78.6962747000,10.0000000000,0.0009604108,0.0012006887,-0.0100000000,0.0100000000,0.0000000000,-0.0167791691,18.8932457137
2026-01-20 17:44:42.010528,-0.0170000000,1.7654062690,12.5870000000,6.0000000000,0.1113670000,0.8928290000,35.7273023000,-78.6962747000,10.0000000000,0.0009478739,0.0011875789,-0.0100000000,0.0100000000,0.0000000000,-0.0167152150,19.0037627052
2026-01-20 17:44:42.262922,-0.0170000000,0.2598737430,12.5870000000,6.0000000000,0.2521840000,0.9207290000,35.7273023000,-78.6962747000,10.0000000000,0.0009332752,0.0011711798,-0.0100000000,0.0100000000,0.0000000000,-0.0165746941,19.2544691819
2026-01-20 17:44:42.437621,-0.0170000000,0.7494068070,12.5870000000,6.0000000000,0.1749010000,0.9775550000,35.7273023000,-78.6962747000,10.0000000000,0.0009231705,0.0011598288,-0.0100000000,0.0100000000,0.0000000000,-0.0164774301,19.4280001516
2026-01-20 17:44:42.567165,-0.0170000000,1.0125925120,12.5870000000,6.0000000000,0.1294420000,1.0161420000,35.7273023000,-78.6962747000,10.0000000000,0.0009156775,0.0011514118,-0.0100000000,0.0100000000,0.0000000000,-0.0164053062,19.5566779562
2026-01-20 17:44:42.871337,-0.0170000000,0.2154669610,12.5870000000,6.0000000000,0.3041580000,1.0012760000,35.7273023000,-78.6962747000,10.0000000000,0.0008980839,0.0011316485,-0.0100000000,0.0100000000,0.0000000000,-0.0162359577,19.8588162927
2026-01-20 17:44:43.008859,-0.0170000000,1.4281833170,12.5870000000,6.0000000000,0.1376630000,0.9405840000,35.7273023000,-78.6962747000,10.0000000000,0.0008901295,0.0011227131,-0.0100000000,0.0100000000,0.0000000000,-0.0161593921,19.9954187405
2026-01-20 17:44:43.265818,-0.0170000000,0.5100970990,12.5870000000,6.0000000000,0.2569550000,0.8465330000,35.7273023000,-78.6962747000,10.0000000000,0.0008829747,0.0011146405,-0.0100000000,0.0100000000,0.0000000000,-0.0160197535,20.2508819533
2026-01-20 17:44:43.471569,-0.0170000000,0.6370139970,12.5870000000,6.0000000000,0.2057600000,0.7999670000,35.7273023000,-78.6962747000,10.0000000000,0.0008773585,0.0011083028,-0.0100000000,0.0100000000,0.0000000000,-0.0159079931,20.4554381032
2026-01-20 17:44:43.578484,-0.0170000000,0.6130073240,12.5870000000,6.0000000000,0.1069090000,0.7546900000,35.7273023000,-78.6962747000,10.0000000000,0.0008744401,0.0011050095,-0.0100000000,0.0100000000,0.0000000000,-0.0158499186,20.5617324029
2026-01-20 17:44:43.983723,-0.0170000000,0.3234516780,12.5870000000,6.0000000000,0.4052290000,0.7725900000,35.7273023000,-78.6962747000,10.0000000000,0.0008633786,0.0010925271,-0.0100000000,0.0100000000,0.0000000000,-0.0156297994,20.9646185363
2026-01-20 17:44:44.340478,-0.0109441558,0.3673851500,12.5870000000,6.0000000000,0.3567700000,0.8213090000,35.7273023000,-78.6962747000,10.0000000000,0.0008652151,0.0010945169,-0.0100000000,0.0100000000,0.0000000000,-0.0154447338,21.3187286402
2026-01-20 17:44:44.924838,0.0000743933,0.1122082260,12.5870000000,6.0000000000,0.5840570000,0.7695190000,35.7273023000,-78.6962747000,10.0000000000,0.0008703240,0.0011001320,-0.0100000000,0.0100000000,0.0000000000,-0.0151431809,21.8986522810
2026-01-20 17:44:45.080583,0.0020000000,2.5208092930,12.5870000000,6.0000000000,0.1559880000,0.7956680000,35.7273023000,-78.6962747000,10.0000000000,0.0008790084,0.0011084368,-0.0094676892,0.0094676892,0.0000000000,-0.0150632191,22.0532310801
2026-01-20 17:44:45.708558,0.0020000000,0.2087034060,12.5870000000,6.0000000000,0.6280300000,0.8222800000,35.7273023000,-78.6962747000,10.0000000000,0.0009702573,0.0011942037,-0.0032337206,0.0032337206,0.0000000000,-0.0147439463,22.6766279418
2026-01-20 17:45:11.378742,24.9663432567,0.0025530110,12.5870000000,6.0000000000,25.6700860000,0.8206500000,35.7273607445,-78.6964555216,10.0000000000,-0.0570538548,-0.1962522299,1.8400000000,-4.6858581418,-0.0180472861,0.0042064216,47.1952713920
2026-01-20 17:45:11.894312,24.9717395771,0.1270877980,12.5870000000,6.0000000000,0.5156750000,0.8909490000,35.7273698283,-78.6964838973,10.0000000000,-0.0562426525,-0.1939922128,1.8400000000,-4.6993489428,-0.0135503524,0.0048473301,47.6449647593
2026-01-20 17:45:13.306348,24.9840263424,0.0464126120,12.5870000000,6.0000000000,1.4120300000,0.9090730000,35.7273937558,-78.6965587741,10.0000000000,-0.0547322755,-0.1904084105,1.8299281570,-4.6798084186,-0.0099760523,0.0050388961,49.0023947669
2026-01-20 17:45:13.424543,24.9849261853,1.1090502940,12.5870000000,6.0000000000,0.1181840000,0.9306970000,35.7273956618,-78.6965647212,10.0000000000,-0.0534940094,-0.1871054750,1.8274740400,-4.6732641067,-0.0091580133,0.0048193496,49.0841986664
2026-01-20 17:45:13.676351,24.9868432524,0.2602514510,12.5870000000,6.0000000000,0.2518180000,0.9876040000,35.7273997225,-78.6965773913,10.0000000000,-0.0508559498,-0.1800687475,1.8222456752,-4.6593218004,-0.0074152251,0.0043516176,49.2584774945
2026-01-20 17:45:14.043473,24.9896382286,0.1785187000,12.5870000000,6.0000000000,0.3671100000,0.9569670000,35.7274056428,-78.6965958636,10.0000000000,-0.0470098071,-0.1698095942,1.8146230129,-4.6389947011,-0.0048743376,0.0036696906,49.5125662366
2026-01-20 17:45:14.392575,24.9922960159,0.1877451160,12.5870000000,6.0000000000,0.3490690000,0.9050460000,35.7274112725,-78.6966134291,10.0000000000,-0.0433524487,-0.1600540019,1.8073745020,-4.6196653386,-0.0024581673,0.0030212354,49.7541832677
2026-01-20 17:45:15.273125,24.9965672741,0.0744222390,12.5870000000,6.0000000000,0.8805970000,0.4600640000,35.7274247319,-78.6966555405,10.0000000000,-0.0148848274,-0.0823126011,1.5962543695,-4.0932480473,0.0000000000,0.0000446364,50.5224246935
2026-01-20 17:45:15.401632,24.9969506261,4.0844486690,12.5870000000,6.0000000000,0.1283620000,0.0499650000,35.7274266231,-78.6966614697,10.0000000000,-0.0088318380,-0.0657248896,1.5464186116,-3.9692975724,0.0000000000,-0.0005220658,50.6502086882
2026-01-20 17:45:15.552769,24.9974014866,1.2997415170,12.5870000000,6.0000000000,0.1512670000,0.1628640000,35.7274288473,-78.6966684430,10.0000000000,-0.0017129132,-0.0462160714,1.4878067447,-3.8235193394,0.0000000000,-0.0011885647,50.8004955264
2026-01-20 17:45:15.660551,24.9977230133,1.8264480470,12.5870000000,6.0000000000,0.1076450000,0.2886120000,35.7274304335,-78.6966734159,10.0000000000,0.0033638783,-0.0323035489,1.4460082661,-3.7195590207,0.0000000000,-0.0016638718,50.9076711126
2026-01-20 17:45:15.855850,24.9983067085,2.3472058780,12.5870000000,6.0000000000,0.1954460000,0.3662540000,35.7274328735,-78.6966811045,10.0000000000,0.0108634428,-0.0101890116,1.3537701104,-3.4909588183,0.0000000000,-0.0019956896,51.1022361630
2026-01-20 17:45:15.975228,24.9986641022,4.9639710150,12.5870000000,6.0000000000,0.1188210000,0.5117630000,35.7274341244,-78.6966850715,10.0000000000,0.0145060833,0.0016141769,1.2882479366,-3.3289403524,0.0000000000,-0.0019052115,51.2213673880
2026-01-20 17:45:16.100374,24.9990387647,3.6524549960,12.5870000000,6.0000000000,0.1256010000,0.5895460000,35.7274354357,-78.6966892303,10.0000000000,0.0183247316,0.0139876807,1.2195598133,-3.1590933565,0.0000000000,-0.0018103616,51.3462548849
2026-01-20 17:45:16.208217,24.9993616253,3.6425077810,12.5870000000,6.0000000000,0.1079520000,0.6831470000,35.7274365657,-78.6966928140,10.0000000000,0.0216154033,0.0246503904,1.1603686957,-3.0127298658,0.0000000000,-0.0017286259,51.4538750987
2026-01-20 17:45:16.363392,24.9998261880,2.9564477670,12.5870000000,6.0000000000,0.1551700000,0.7452020000,35.7274381917,-78.6966979707,10.0000000000,0.0263503360,0.0399929155,1.0751988624,-2.8021280962,0.0000000000,-0.0016110168,51.6087293410
2026-01-20 17:45:16.478267,25.0001701005,0.5712044490,12.5870000000,6.0000000000,0.1147330000,0.7905150000,35.7274393954,-78.6967017881,10.0000000000,0.0298555729,0.0513508773,1.0121482427,-2.6462211091,0.0000000000,-0.0015239516,51.7233668315
2026-01-20 17:45:16.583271,25.0004844616,0.6232382980,12.5870000000,6.0000000000,0.1051540000,0.8472930000,35.7274404956,-78.6967052775,10.0000000000,0.0330596155,0.0617328842,0.9545153703,-2.5037107338,0.0000000000,-0.0014443677,51.8281538722
2026-01-20 17:45:16.712401,25.0008710510,1.0150941350,12.5870000000,6.0000000000,0.1291230000,0.8772640000,35.7274418487,-78.6967095687,10.0000000000,0.0369998258,0.0745002832,0.8836406453,-2.3284568685,0.0000000000,-0.0013464984,51.9570170085
2026-01-20 17:45:16.864665,25.0013269723,0.4304470910,12.5870000000,6.0000000000,0.1522510000,0.9233120000,35.7274428559,-78.6967127765,10.0000000000,0.0394872952,0.0835779391,0.7913358148,-2.0934349525,0.0000000000,-0.0011771268,52.1089907701
2026-01-20 17:45:17.322653,25.0026984013,0.2862152770,12.5870000000,6.0000000000,0.4579490000,0.6810880000,35.7274451873,-78.6967202280,10.0000000000,0.0444080435,0.1037904940,0.5033357183,-1.3528632755,0.0000000000,-0.0006036500,52.5661337805
2026-01-20 17:45:17.433431,25.0030301226,3.5488168080,12.5870000000,6.0000000000,0.1108020000,0.0795390000,35.7274457512,-78.6967220303,10.0000000000,0.0455982742,0.1086795074,0.4336742466,-1.1737337769,0.0000000000,-0.0004649374,52.6767075451
2026-01-20 17:45:17.541978,25.0033551632,3.0180059870,12.5870000000,6.0000000000,0.1085750000,0.1738440000,35.7274463038,-78.6967237964,10.0000000000,0.0467645340,0.1134700574,0.3654157373,-0.9982118959,0.0000000000,-0.0003290184,52.7850543853
2026-01-20 17:45:17.651392,25.0036827993,2.3984336400,12.5870000000,6.0000000000,0.1092980000,0.2574510000,35.7274468608,-78.6967255765,10.0000000000,0.0479401072,0.1182988629,0.2966121413,-0.8212883633,0.0000000000,-0.0001920141,52.8942664424
2026-01-20 17:45:17.877389,25.0040000000,1.1600010620,12.5870000000,6.0000000000,0.2259860000,0.3693310000,35.7274474719,-78.6967275517,10.0000000000,0.0450157715,0.1130922642,0.1976406706,-0.5589144803,0.0000000000,-0.0003926537,53.1198493680
2026-01-20 17:45:17.997540,25.0040000000,2.1795204360,12.5870000000,6.0000000000,0.1202760000,0.5227700000,35.7274475439,-78.6967278035,10.0000000000,0.0409504994,0.1032038353,0.1652589872,-0.4677660380,0.0000000000,-0.0007261642,53.2397815290
2026-01-20 17:45:18.151070,25.0040000000,2.1343199000,12.5870000000,6.0000000000,0.1535290000,0.6453010000,35.7274476358,-78.6967281254,10.0000000000,0.0357558656,0.0905683304,0.1238814411,-0.3512959082,0.0000000000,-0.0011523263,53.3930316997
2026-01-20 17:45:18.302616,25.0040000000,2.1623333770,12.5870000000,6.0000000000,0.1515400000,0.7597430000,35.7274477266,-78.6967284430,10.0000000000,0.0306283512,0.0780960876,0.0830385301,-0.2363306774,0.0000000000,-0.0015729820,53.5443017403
2026-01-20 17:45:18.449952,25.0040000000,3.1139408910,12.5870000000,6.0000000000,0.1473220000,0.8708580000,35.7274478148,-78.6967287519,10.0000000000,0.0256432868,0.0659703422,0.0433302959,-0.1245593514,0.0000000000,-0.0019819513,53.6913692745
2026-01-20 17:45:18.573381,25.0040000000,2.1253080810,12.5870000000,6.0000000000,0.1233440000,0.9903180000,35.7274478887,-78.6967290106,10.0000000000,0.0214671018,0.0558121274,0.0100651432,-0.0309241068,0.0000000000,-0.0023245610,53.8145735437
2026-01-20 17:45:18.904121,25.0035658306,0.5942511710,12.5870000000,6.0000000000,0.3308500000,1.0552580000,35.7274479276,-78.6967290816,10.0000000000,0.0122976808,0.0311941612,-0.0414472313,0.1157889253,0.0000000000,-0.0028639403,54.1447231329
2026-01-20 17:45:19.067908,25.0030753236,0.4006308760,12.5870000000,6.0000000000,0.1635820000,1.0300970000,35.7274478459,-78.6967287219,10.0000000000,0.0090393118,0.0206540462,-0.0430822547,0.1223290190,0.0000000000,-0.0028907614,54.3082254742
2026-01-20 17:45:19.209932,25.0026499923,0.9215236860,12.5870000000,6.0000000000,0.1422340000,1.0451510000,35.7274477750,-78.6967284100,10.0000000000,0.0062138961,0.0115144409,-0.0445000257,0.1280001027,0.0000000000,-0.0029140186,54.4500025683
2026-01-20 17:45:19.418390,25.0020257053,0.3145582040,12.5870000000,6.0000000000,0.2083430000,1.0763980000,35.7274476710,-78.6967279522,10.0000000000,0.0020668454,-0.0019003663,-0.0465809825,0.1363239298,0.0000000000,-0.0029481549,54.6580982461
2026-01-20 17:45:20.882156,24.9998148858,0.0447692170,12.5870000000,6.0000000000,1.4638630000,1.1174980000,35.7274497800,-78.6967396628,10.0000000000,-0.0666468772,-0.3038225409,0.5193702545,-2.2991222445,0.0000000000,0.0072431335,56.1164122638
2026-01-20 17:45:21.184068,25.0019172227,0.2170677180,12.5870000000,6.0000000000,0.3019150000,1.1503850000,35.7274517922,-78.6967501444,10.0000000000,-0.0636216708,-0.3009813016,0.6725405110,-2.9418366538,0.0000000000,0.0062308843,56.4167460999
2026-01-20 17:45:42.175862,25.0000000000,0.0031219800,12.5870000000,6.0000000000,20.9918040000,1.6104880000,35.7276421069,-78.6977634185,10.0000000000,0.0137305781,0.0520404915,0.0702233381,-0.3237130056,0.0000000000,-0.0082996142,75.7099385839
2026-01-20 17:45:47.319323,24.9948866535,0.0127421110,12.5870000000,6.0000000000,5.1432610000,1.9204950000,35.7276703337,-78.6979105387,10.0000000000,-0.0342529671,-0.2139398227,1.1055667326,-4.8523675235,0.0000000000,-0.0081348065,80.5566732575
2026-01-20 17:45:49.137587,24.9967325041,0.0360417440,12.5870000000,6.0000000000,1.8183360000,0.9280560000,35.7276889358,-78.6980101072,10.0000000000,-0.0324301618,-0.2027754264,1.1100000000,-4.9090124389,0.0000000000,-0.0080314451,82.3662520357
2026-01-20 17:45:49.372364,24.9972015039,1.1159812690,12.5870000000,6.0000000000,0.2349000000,0.1287270000,35.7276913277,-78.6980229813,10.0000000000,-0.0325048188,-0.2020598174,1.1100000000,-4.9019774413,0.0000000000,-0.0080408497,82.6007519560
2026-01-20 17:45:49.504717,24.9974658975,2.4757098170,12.5870000000,6.0000000000,0.1323580000,0.3411720000,35.7276926761,-78.6980302389,10.0000000000,-0.0325469059,-0.2016564006,1.1100000000,-4.8980115381,0.0000000000,-0.0080461514,82.7329487298
2026-01-20 17:45:49.624045,24.9977042717,2.1972407090,12.5870000000,6.0000000000,0.1193060000,0.4438180000,35.7276938918,-78.6980367823,10.0000000000,-0.0325848512,-0.2012926846,1.1100000000,-4.8944359243,0.0000000000,-0.0080509313,82.8521358563
2026-01-20 17:45:50.045772,24.9980000000,0.6215654850,12.5870000000,6.0000000000,0.4217480000,0.5894370000,35.7276982132,-78.6980597851,10.0000000000,-0.0325883963,-0.2008927284,1.1072687814,-4.8818063442,0.0000000000,-0.0082722252,83.2731218584
2026-01-20 17:45:50.164658,24.9980000000,2.7562770740,12.5870000000,6.0000000000,0.1188850000,0.9064010000,35.7276994351,-78.6980662510,10.0000000000,-0.0325694876,-0.2009150001,1.1060823820,-4.8782471461,0.0000000000,-0.0083657759,83.3917617953
2026-01-20 17:45:50.304790,24.9980000000,2.3383833700,12.5870000000,6.0000000000,0.1401310000,1.0041100000,35.7277008755,-78.6980738724,10.0000000000,-0.0325471997,-0.2009412519,1.1046839601,-4.8740518804,0.0000000000,-0.0084760452,83.5316039862
2026-01-20 17:45:50.409790,24.9980000000,2.4964430940,12.5870000000,6.0000000000,0.1050070000,1.1144850000,35.7277019548,-78.6980795831,10.0000000000,-0.0325304995,-0.2009609222,1.1036361330,-4.8709083990,0.0000000000,-0.0085586692,83.6363866984
2026-01-20 17:45:50.562673,24.9980000000,1.7148052930,12.5870000000,6.0000000000,0.1528710000,1.2043030000,35.7277035262,-78.6980878980,10.0000000000,-0.0325061836,-0.2009895628,1.1021104664,-4.8663313993,0.0000000000,-0.0086789721,83.7889533583
2026-01-20 17:46:50.187609,24.9927055558,0.0021982790,12.5870000000,6.0000000000,59.6248120000,0.9084060000,35.7283304648,-78.7002681613,10.0000000000,-0.0567631678,0.0059048859,4.0908519417,1.2103518800,0.0000000000,-0.0260798567,139.4314814054
2026-01-20 17:46:50.468357,24.9918655110,0.2333271620,12.5870000000,6.0000000000,0.2808760000,0.2763180000,35.7283408254,-78.7002644371,10.0000000000,-0.0237641254,-0.0030859676,3.7604343342,1.1067463590,0.0000000000,-0.0259327385,139.7114963269
2026-01-20 17:46:50.722422,24.9911053066,0.2579730910,12.5870000000,6.0000000000,0.2540420000,0.5287760000,35.7283502012,-78.7002610669,10.0000000000,0.0060985890,-0.0112223034,3.4614206084,1.0129878179,0.0000000000,-0.0257996027,139.9648977895
2026-01-20 17:46:51.005441,24.9914948769,0.2323889220,12.5870000000,6.0000000000,0.2820100000,0.7843020000,35.7283575375,-78.7002584225,10.0000000000,0.0372696289,-0.0193149868,3.0339960448,0.8861783209,0.0000000000,-0.0266654814,140.2474384328
2026-01-20 17:46:51.191732,24.9918668777,0.3522418220,12.5870000000,6.0000000000,0.1860540000,1.0083330000,35.7283620759,-78.7002567857,10.0000000000,0.0575914437,-0.0245510591,2.7438353614,0.8006181194,0.0000000000,-0.0273302291,140.4334388709
2026-01-20 17:46:51.425456,24.9923335971,0.2789003320,12.5870000000,6.0000000000,0.2349800000,1.2088480000,35.7283677699,-78.7002547322,10.0000000000,0.0830875789,-0.0311203350,2.3797942516,0.6932726639,0.0000000000,-0.0281642341,140.6667985567
2026-01-20 17:46:51.575472,24.9926331612,0.4368542440,12.5870000000,6.0000000000,0.1500180000,1.3913420000,35.7283714246,-78.7002534141,10.0000000000,0.0994522894,-0.0353368289,2.1461342349,0.6243729154,0.0000000000,-0.0286995408,140.8165806187
2026-01-20 17:46:51.713804,24.9929093936,0.9475312660,12.5870000000,6.0000000000,0.1383300000,1.5254180000,35.7283747946,-78.7002521987,10.0000000000,0.1145424235,-0.0392249184,1.9306729841,0.5608394697,0.0000000000,-0.0291931548,140.9546968051
2026-01-20 17:46:52.040389,24.9946834369,0.2006589020,12.5870000000,6.0000000000,0.3266040000,1.7454910000,35.7283785374,-78.7002508461,10.0000000000,0.1140962601,-0.0378052845,1.4307235966,0.4165479624,0.0000000000,-0.0291573783,141.2805728126
2026-01-20 17:46:52.192390,24.9955933713,0.8623895460,12.5870000000,6.0000000000,0.1519870000,1.9686220000,35.7283799629,-78.7002503304,10.0000000000,0.1111796874,-0.0363486010,1.1986903140,0.3498194367,0.0000000000,-0.0290505248,141.4322285529
2026-01-20 17:46:52.335329,24.9964490594,0.9169721560,12.5870000000,6.0000000000,0.1429400000,2.1069280000,35.7283813035,-78.7002498455,10.0000000000,0.1084369882,-0.0349787586,0.9804898577,0.2870689787,0.0000000000,-0.0289500415,141.5748432303
2026-01-20 17:46:52.494027,24.9973990859,0.8260822980,12.5870000000,6.0000000000,0.1586670000,2.2494310000,35.7283827919,-78.7002493072,10.0000000000,0.1053919100,-0.0334578929,0.7382330938,0.2174003668,0.0000000000,-0.0288384801,141.7331809845
2026-01-20 17:46:52.653441,24.9983533989,0.8219844720,12.5870000000,6.0000000000,0.1594580000,2.3974260000,35.7283842870,-78.7002487664,10.0000000000,0.1023330927,-0.0319301653,0.4948832876,0.1474174160,0.0000000000,-0.0287264152,141.8922331454
2026-01-20 17:46:52.907430,24.9987086634,0.2580441940,12.5870000000,6.0000000000,0.2539720000,2.5938240000,35.7283853291,-78.7002483709,10.0000000000,0.0890682592,-0.0272937896,0.2571658386,0.0810631180,0.0000000000,-0.0284013412,142.1456683228
2026-01-20 17:46:53.132438,24.9982595982,0.5824930340,12.5870000000,6.0000000000,0.2250190000,2.8143450000,35.7283853740,-78.7002483260,10.0000000000,0.0718164732,-0.0217428311,0.1448995420,0.0518738809,0.0000000000,-0.0280173120,142.3702009159
2026-01-20 17:46:53.289381,24.9979463753,0.8351673560,12.5870000000,6.0000000000,0.1569410000,3.0013290000,35.7283854054,-78.7002482946,10.0000000000,0.0597833576,-0.0178710392,0.0665938328,0.0315143965,0.0000000000,-0.0277494517,142.5268123345
2026-01-20 17:46:53.663274,24.9972001700,0.1752768120,12.5870000000,6.0000000000,0.3739000000,3.2472260000,35.7283854800,-78.7002482200,10.0000000000,0.0311163058,-0.0086470890,-0.1199575044,-0.0169889511,0.0000000000,-0.0271113156,142.8999150088
2026-01-20 17:46:53.956403,24.9964226552,0.2235853630,12.5870000000,6.0000000000,0.2931140000,3.5632330000,35.7283850959,-78.7002483155,10.0000000000,0.0226498274,0.0144252150,-0.1757734478,0.0007917218,0.0000000000,-0.0267247328,143.1924482612
2026-01-20 17:47:11.987092,24.9950000000,0.0036346890,12.5870000000,6.0000000000,18.0307050000,3.5601400000,35.7282107781,-78.6993742555,10.0000000000,0.0410935407,0.1997067965,-1.1700000000,4.8622326255,0.0000000000,-0.0228661885,160.2232625487
2026-01-20 17:47:14.518360,24.9950000000,0.0517966530,12.5870000000,6.0000000000,2.5305110000,2.3825520000,35.7281845158,-78.6992393707,10.0000000000,0.0425411054,0.2042903530,-1.1700000000,4.8847773081,0.0000000000,-0.0222194372,162.7388654057
2026-01-20 17:47:14.625359,24.9950000000,1.2168520340,12.5870000000,6.0000000000,0.1077140000,0.2735870000,35.7281834091,-78.6992336778,10.0000000000,0.0426770398,0.2045614203,-1.1700000000,4.8869055094,0.0000000000,-0.0222201086,162.8452754686
2026-01-20 17:47:14.940127,24.9950000000,0.2081783440,12.5870000000,6.0000000000,0.3148070000,0.4686220000,35.7281801321,-78.6992167905,10.0000000000,0.0426203543,0.2040241462,-1.1700000000,4.8900000000,0.0000000000,-0.0223183212,163.1588474730
2026-01-20 17:47:15.060049,24.9950000000,1.0929315330,12.5870000000,6.0000000000,0.1199270000,0.6794270000,35.7281788756,-78.6992103046,10.0000000000,0.0424287501,0.2033224725,-1.1700000000,4.8900000000,0.0000000000,-0.0223915734,163.2785136558
2026-01-20 17:47:15.206087,24.9950000000,0.4487875700,12.5870000000,6.0000000000,0.1460290000,0.7939570000,35.7281773455,-78.6992024062,10.0000000000,0.0421954191,0.2024679913,-1.1700000000,4.8900000000,0.0000000000,-0.0224807782,163.4242402413
2026-01-20 17:47:15.339120,24.9950000000,0.9853704010,12.5870000000,6.0000000000,0.1330180000,0.9233480000,35.7281759516,-78.6991952112,10.0000000000,0.0419828665,0.2016896022,-1.1700000000,4.8900000000,0.0000000000,-0.0225620392,163.5569897599
2026-01-20 17:47:15.538230,24.9950000000,0.6582364930,12.5870000000,6.0000000000,0.1991260000,1.0597260000,35.7281738654,-78.6991844424,10.0000000000,0.0416647404,0.2005245928,-1.1700000000,4.8900000000,0.0000000000,-0.0226836620,163.7556750399
2026-01-20 17:47:15.669607,24.9950000000,1.0055389340,12.5870000000,6.0000000000,0.1303500000,1.2241930000,35.7281724889,-78.6991773370,10.0000000000,0.0414548341,0.1997558951,-1.1700000000,4.8900000000,0.0000000000,-0.0227639112,163.8867717707
2026-01-20 17:47:15.921223,24.9950000000,0.2594570630,12.5870000000,6.0000000000,0.2525890000,1.4107640000,35.7281698661,-78.6991637963,10.0000000000,0.0414044688,0.1996261328,-1.1700000000,4.8872425599,0.0000000000,-0.0228011618,164.1378720069
2026-01-20 17:47:16.127113,24.9950000000,0.6364294070,12.5870000000,6.0000000000,0.2059490000,1.6223570000,35.7281677291,-78.6991527619,10.0000000000,0.0415996058,0.2004222383,-1.1700000000,4.8831329198,0.0000000000,-0.0227533790,164.3433540104
2026-01-20 17:47:16.283837,24.9950000000,0.8363877690,12.5870000000,6.0000000000,0.1567120000,1.7914280000,35.7281661024,-78.6991443625,10.0000000000,0.0417481445,0.2010282355,-1.1700000000,4.8800046525,0.0000000000,-0.0227170066,164.4997673739
2026-01-20 17:47:16.396716,24.9950000000,1.1612137320,12.5870000000,6.0000000000,0.1128750000,1.9247930000,35.7281649308,-78.6991383129,10.0000000000,0.0418551282,0.2014646999,-1.1700000000,4.8777515446,0.0000000000,-0.0226908097,164.6124227678
2026-01-20 17:47:16.592274,24.9950000000,0.6702393130,12.5870000000,6.0000000000,0.1955600000,2.0495840000,35.7281629010,-78.6991278323,10.0000000000,0.0420404726,0.2022208544,-1.1700000000,4.8738481382,0.0000000000,-0.0226454248,164.8075930881
2026-01-20 17:47:16.720083,24.9950000000,1.0254660960,12.5870000000,6.0000000000,0.1278170000,2.2118380000,35.7281615745,-78.6991209825,10.0000000000,0.0421616065,0.2027150476,-1.1700000000,4.8712970237,0.0000000000,-0.0226157630,164.9351488130
2026-01-20 17:47:17.069994,24.9950000000,0.1874497670,12.5870000000,6.0000000000,0.3496190000,2.4380000000,35.7281579164,-78.6991021842,10.0000000000,0.0419799279,0.2021961803,-1.1700000000,4.8728415301,0.0000000000,-0.0228048386,165.2841530110
2026-01-20 17:47:17.233107,24.9950000000,0.8021345870,12.5870000000,6.0000000000,0.1634040000,2.6825340000,35.7281562084,-78.6990934164,10.0000000000,0.0418406673,0.2017553125,-1.1700000000,4.8744682056,0.0000000000,-0.0229217107,165.4468205587
2026-01-20 17:47:24.880242,24.9958802657,0.0085699950,12.5870000000,6.0000000000,7.6471460000,1.4625330000,35.7280759428,-78.6986806463,10.0000000000,0.0432689965,0.2033888059,-1.1700000000,4.8900000000,0.0000000000,-0.0223572693,172.1197342975
2026-01-20 17:47:25.002196,24.9957585157,1.6122810470,12.5870000000,6.0000000000,0.1219440000,0.2168150000,35.7280746644,-78.6986740840,10.0000000000,0.0430594395,0.2030886856,-1.1700000000,4.8900000000,0.0000000000,-0.0224106698,172.2414842886
2026-01-20 17:47:25.108294,24.9956525953,1.8530617630,12.5870000000,6.0000000000,0.1060990000,0.3164060000,35.7280735523,-78.6986683749,10.0000000000,0.0428771286,0.2028275860,-1.1700000000,4.8900000000,0.0000000000,-0.0224571274,172.3474046826
2026-01-20 17:47:25.212436,24.9955486275,1.2600411450,12.5870000000,6.0000000000,0.1040220000,0.4178480000,35.7280724606,-78.6986627710,10.0000000000,0.0426981785,0.2025712997,-1.1700000000,4.8900000000,0.0000000000,-0.0225027285,172.4513725092
2026-01-20 17:47:25.337350,24.9954239226,1.5724362970,12.5870000000,6.0000000000,0.1250340000,0.5152360000,35.7280711512,-78.6986560494,10.0000000000,0.0424835355,0.2022638953,-1.1700000000,4.8900000000,0.0000000000,-0.0225574251,172.5760774198
2026-01-20 17:47:25.452359,24.9953091060,1.7094712680,12.5870000000,6.0000000000,0.1150110000,0.6161850000,35.7280699456,-78.6986498608,10.0000000000,0.0422859124,0.2019808661,-1.1700000000,4.8900000000,0.0000000000,-0.0226077846,172.6908940075
2026-01-20 17:47:25.580701,24.9951809787,1.0212553760,12.5870000000,6.0000000000,0.1283440000,0.7188960000,35.7280686003,-78.6986429548,10.0000000000,0.0420653788,0.2016650255,-1.1700000000,4.8900000000,0.0000000000,-0.0226639823,172.8190212781
2026-01-20 17:47:25.686311,24.9950755454,1.2411886140,12.5870000000,6.0000000000,0.1056020000,0.8222470000,35.7280674932,-78.6986372719,10.0000000000,0.0418839063,0.2014051267,-1.1700000000,4.8900000000,0.0000000000,-0.0227102262,172.9244545526
2026-01-20 17:47:25.868901,24.9951067890,0.7178644580,12.5870000000,6.0000000000,0.1825860000,0.9455810000,35.7280655787,-78.6986274334,10.0000000000,0.0417412004,0.2011046650,-1.1689321097,4.8878642195,0.0000000000,-0.0227664848,173.1067890267
2026-01-20 17:47:26.016224,24.9952539340,1.3346095100,12.5870000000,6.0000000000,0.1473150000,1.1084170000,35.7280640337,-78.6986194876,10.0000000000,0.0417237334,0.2009472561,-1.1674606600,4.8849213201,0.0000000000,-0.0227983470,173.2539339955
2026-01-20 17:47:26.130644,24.9953682158,1.1455440090,12.5870000000,6.0000000000,0.1144190000,1.2318790000,35.7280628337,-78.6986133163,10.0000000000,0.0417101674,0.2008250026,-1.1663178421,4.8826356843,0.0000000000,-0.0228230931,173.3682157867
2026-01-20 17:47:26.374186,24.9956114637,0.2690665440,12.5870000000,6.0000000000,0.2435680000,1.3957540000,35.7280602796,-78.6986001810,10.0000000000,0.0416812923,0.2005647871,-1.1638853631,4.8777707261,0.0000000000,-0.0228757651,173.6114636946
2026-01-20 17:47:26.529442,24.9957665323,1.2665266630,12.5870000000,6.0000000000,0.1552340000,1.5731470000,35.7280586514,-78.6985918073,10.0000000000,0.0416628847,0.2003989018,-1.1623346773,4.8746693547,0.0000000000,-0.0229093431,173.7665322670
2026-01-20 17:47:26.646171,24.9958831201,1.1227589280,12.5870000000,6.0000000000,0.1167410000,1.7042540000,35.7280574272,-78.6985855115,10.0000000000,0.0416490450,0.2002741814,-1.1611687987,4.8723375973,0.0000000000,-0.0229345886,173.8831201340
2026-01-20 17:47:26.903112,24.9961396221,0.7656164210,12.5870000000,6.0000000000,0.2567970000,1.8457850000,35.7280547619,-78.6985717442,10.0000000000,0.0390812301,0.1903790363,-1.1544151176,4.8462642499,0.0000000000,-0.0234025432,174.1396220593
2026-01-20 17:47:28.590345,24.9945390855,0.0776778200,12.5870000000,6.0000000000,1.6873800000,1.3775200000,35.7280385173,-78.6984878199,10.0000000000,-0.0001218692,0.0324924576,-0.8985176991,3.8058677482,0.0000000000,-0.0276066196,175.8203048182
2026-01-20 17:47:28.722981,24.9941434512,1.4822677930,12.5870000000,6.0000000000,0.1326400000,0.1692720000,35.7280373304,-78.6984817139,10.0000000000,-0.0038943087,0.0167885110,-0.8629106043,3.6621205879,0.0000000000,-0.0278439775,175.9521829469
2026-01-20 17:47:28.869065,24.9938045871,0.4486063190,12.5870000000,6.0000000000,0.1460880000,0.2868940000,35.7280362942,-78.6984763539,10.0000000000,-0.0076795720,0.0004622481,-0.8148256818,3.4663715342,0.0000000000,-0.0278538810,176.0977064393
2026-01-20 17:47:29.010058,24.9935234226,0.9296677730,12.5870000000,6.0000000000,0.1409880000,0.4272420000,35.7280354226,-78.6984718271,10.0000000000,-0.0111578292,-0.0148356671,-0.7642160737,3.2597156341,0.0000000000,-0.0277443018,176.2382886843
2026-01-20 17:47:29.156069,24.9932322512,1.7954699560,12.5870000000,6.0000000000,0.1460030000,0.5290370000,35.7280345200,-78.6984671392,10.0000000000,-0.0147598818,-0.0306780537,-0.7118052084,3.0457046010,0.0000000000,-0.0276308226,176.3838744211
2026-01-20 17:47:29.272105,24.9930008556,2.2593556620,12.5870000000,6.0000000000,0.1160260000,0.6482100000,35.7280338027,-78.6984634138,10.0000000000,-0.0176224525,-0.0432680841,-0.6701540101,2.8756288748,0.0000000000,-0.0275406400,176.4995721940
2026-01-20 17:47:29.423458,24.9926990314,0.8677506490,12.5870000000,6.0000000000,0.1510480000,0.7545800000,35.7280328670,-78.6984585544,10.0000000000,-0.0213562895,-0.0596900789,-0.6158256451,2.6537880507,0.0000000000,-0.0274230090,176.6504843192
2026-01-20 17:47:29.546726,24.9924532140,1.5913362310,12.5870000000,6.0000000000,0.1235490000,0.8866270000,35.7280321050,-78.6984545967,10.0000000000,-0.0243972715,-0.0730647901,-0.5715785121,2.4731122577,0.0000000000,-0.0273272058,176.7733930220
2026-01-20 17:47:29.966953,24.9925752475,0.4689349220,12.5870000000,6.0000000000,0.4192650000,1.0769990000,35.7280301631,-78.6984446155,10.0000000000,-0.0301557616,-0.1003866141,-0.4152178255,1.8274488606,0.0000000000,-0.0271907195,177.1917491653
2026-01-20 17:47:30.109017,24.9929987700,1.3743333080,12.5870000000,6.0000000000,0.1430570000,1.3929250000,35.7280297678,-78.6984426391,10.0000000000,-0.0302675429,-0.1023471191,-0.3601599008,1.5973349699,0.0000000000,-0.0272202770,177.3329233313
2026-01-20 17:47:30.244960,24.9934040439,1.9281390440,12.5870000000,6.0000000000,0.1359570000,1.5181500000,35.7280293896,-78.6984407478,10.0000000000,-0.0303745079,-0.1042231505,-0.3074742952,1.3771361567,0.0000000000,-0.0272485609,177.4680146278
2026-01-20 17:47:30.502025,24.9941704076,0.2549483380,12.5870000000,6.0000000000,0.2570560000,1.6943940000,35.7280286743,-78.6984371714,10.0000000000,-0.0305767761,-0.1077706832,-0.2078470112,0.9607452005,0.0000000000,-0.0273020451,177.7234692021
2026-01-20 17:47:58.100791,24.9980000000,0.0023746020,12.5870000000,6.0000000000,27.5987260000,1.8097860000,35.7277703254,-78.6971246422,10.0000000000,0.0421525019,0.2012084449,-1.1800000000,4.8700000000,0.0000000000,-0.0261776905,203.3499587513
2026-01-20 17:47:58.215814,24.9980000000,1.1392314850,12.5870000000,6.0000000000,0.1150530000,1.8046290000,35.7277691201,-78.6971184893,10.0000000000,0.0424103576,0.2015498435,-1.1800000000,4.8700000000,0.0000000000,-0.0261320241,203.4647518808
2026-01-20 17:48:01.446954,24.9966364110,0.0202836480,12.5870000000,6.0000000000,3.2309770000,1.6471830000,35.7277350730,-78.6969455467,10.0000000000,0.0415912283,0.2007146898,-1.1831820551,4.8831820551,0.0000000000,-0.0254366774,206.6817944905
2026-01-20 17:48:03.900794,24.9980000000,0.0267056340,12.5870000000,6.0000000000,2.4540140000,1.4521790000,35.7277091716,-78.6968140317,10.0000000000,0.0419639087,0.2002987877,-1.1900000000,4.8700000000,0.0000000000,-0.0270671565,209.1265096388
2026-01-20 17:48:17.609596,24.9940000000,0.0047806550,12.5870000000,6.0000000000,13.7085830000,1.2284390000,35.7274490412,-78.6967223331,10.0000000000,-0.1211235258,0.0505808729,-1.4389330654,-0.4000141996,0.0000000000,-0.0392116380,221.8518255563
2026-01-20 17:48:18.312564,24.9951016523,0.1865320960,12.5870000000,6.0000000000,0.7026780000,0.7148870000,35.7274437111,-78.6967243915,10.0000000000,-0.0945097372,0.0380300977,-0.5730747187,-0.1327191110,0.0000000000,-0.0379241638,222.5508261440
2026-01-20 17:48:18.456920,24.9953886768,5.8811980980,12.5870000000,6.0000000000,0.1448630000,0.0509360000,35.7274430366,-78.6967246498,10.0000000000,-0.0840316612,0.0336935578,-0.4123409747,-0.0839249388,0.0000000000,-0.0374383967,222.6943384154
2026-01-20 17:48:18.559994,24.9955936199,7.6300026200,12.5870000000,6.0000000000,0.1030710000,0.1215640000,35.7274425550,-78.6967248343,10.0000000000,-0.0765500395,0.0305971543,-0.2975728555,-0.0490846168,0.0000000000,-0.0370915462,222.7968099505
2026-01-20 17:48:18.669101,24.9958105582,9.0096233160,12.5870000000,6.0000000000,0.1091100000,0.1620750000,35.7274420452,-78.6967250295,10.0000000000,-0.0686305205,0.0273195192,-0.1760873894,-0.0122051004,0.0000000000,-0.0367243947,222.9052791166
2026-01-20 17:48:19.530367,24.9937062243,0.6849442650,12.5870000000,6.0000000000,0.8611270000,0.2440220000,35.7274425175,-78.6967248942,10.0000000000,-0.0181516759,0.0083211163,0.1058561403,0.0735214340,0.0000000000,-0.0358321084,223.7645919145
2026-01-20 17:48:21.833005,24.9951864889,0.0569190780,12.5870000000,6.0000000000,2.3027780000,0.9326100000,35.7274352049,-78.6966909343,10.0000000000,0.1418573271,0.3290815897,-1.4142435607,3.6234601595,0.0000000000,-0.0144154717,226.0621629762
2026-01-20 17:48:22.469688,24.9970909313,0.1029328380,12.5870000000,6.0000000000,0.6366870000,1.1797450000,35.7274260635,-78.6966616694,10.0000000000,0.0999038085,0.2451814768,-1.6618210657,4.1694002986,0.0000000000,-0.0260367733,226.6969770914
2026-01-20 17:48:24.015171,24.9925321711,0.0424059090,12.5870000000,6.0000000000,1.5454450000,0.6858130000,35.7274014702,-78.6965848429,10.0000000000,0.0712301843,0.2006823323,-1.8546782888,4.6610522997,0.0000000000,-0.0331875764,228.2339144408
2026-01-20 17:48:24.247223,24.9920706255,1.6950938260,12.5870000000,6.0000000000,0.2319730000,0.2758760000,35.7273975933,-78.6965727504,10.0000000000,0.0700310617,0.1990197392,-1.8592937451,4.6818218530,0.0000000000,-0.0334434339,228.4646872554
2026-01-20 17:48:24.361402,24.9918435261,1.7222898690,12.5870000000,6.0000000000,0.1141550000,0.4693480000,35.7273956856,-78.6965668004,10.0000000000,0.0694410444,0.1982016753,-1.8615647386,4.6920413238,0.0000000000,-0.0335693263,228.5782369316
2026-01-20 17:48:24.481650,24.9916043562,2.7220016280,12.5870000000,6.0000000000,0.1203820000,0.5600240000,35.7273936766,-78.6965605341,10.0000000000,0.0688196669,0.1973401305,-1.8639564378,4.7028039702,0.0000000000,-0.0337019099,228.6978218907
2026-01-20 17:48:24.589092,24.9913906564,3.0497179980,12.5870000000,6.0000000000,0.1074460000,0.6519470000,35.7273918815,-78.6965549352,10.0000000000,0.0682644623,0.1965703347,-1.8660934361,4.7124204626,0.0000000000,-0.0338203743,228.8046718070
2026-01-20 17:48:24.723459,24.9911234038,2.9263021590,12.5870000000,6.0000000000,0.1343730000,0.7388890000,35.7273896366,-78.6965479332,10.0000000000,0.0675701244,0.1956076297,-1.8687659621,4.7244468294,0.0000000000,-0.0339685256,228.9382981042
2026-01-20 17:48:24.863662,24.9910000000,0.9348730060,12.5870000000,6.0000000000,0.1402030000,0.8378110000,35.7273872902,-78.6965406147,10.0000000000,0.0671670303,0.1949847591,-1.8692203558,4.7315592885,0.0000000000,-0.0340416784,229.0779644250
2026-01-20 17:48:24.970009,24.9910000000,3.6977242810,12.5870000000,6.0000000000,0.1063400000,0.9563890000,35.7273855080,-78.6965350560,10.0000000000,0.0670547989,0.1947420987,-1.8681595346,4.7336809309,0.0000000000,-0.0340481334,229.1840465434
2026-01-20 17:48:27.886187,24.9916289434,0.0898929730,12.5870000000,6.0000000000,2.9161790000,0.9865740000,35.7273370024,-78.6963835092,10.0000000000,0.0625282366,0.1785832692,-1.8015523273,4.6188808182,0.0000000000,-0.0343440474,232.0618427668
2026-01-20 17:48:29.855050,24.9786005404,0.0332859970,12.5870000000,6.0000000000,1.9688760000,0.8535760000,35.7273105147,-78.6963001984,10.0000000000,-0.0383506943,-0.0684289515,-1.0581656326,2.7630567457,0.0581386109,-0.0396409254,233.5285328260
2026-01-20 17:48:29.967392,24.9770380581,1.7545199810,12.5870000000,6.0000000000,0.1120580000,0.8011550000,35.7273093986,-78.6962966716,10.0000000000,-0.0449635425,-0.0851989272,-0.9923181626,2.5989961000,0.0704152578,-0.0391775158,233.6401387075
2026-01-20 17:48:30.513863,24.8548286675,0.1198659700,12.5870000000,6.0000000000,0.5467440000,0.8513890000,35.7273051409,-78.6962831763,10.0000000000,-0.0611709392,-0.1300884401,-0.6573362612,1.7514404396,0.3077266237,-0.0383817208,234.1830802071
2026-01-20 17:48:31.991232,23.2786192887,0.0443607210,12.5870000000,6.0000000000,1.4773430000,0.8134340000,35.7273020856,-78.6962734713,10.0000000000,-0.0177736038,-0.0429947918,-0.0356571702,0.1012528314,1.3729977349,-0.0424285708,235.5718679214
2026-01-20 17:48:32.196004,22.9494484645,0.3200015630,12.5870000000,6.0000000000,0.2047990000,0.7490550000,35.7273020499,-78.6962733998,10.0000000000,-0.0113445514,-0.0285839708,-0.0124257874,0.0297716535,1.4301826772,-0.0427193235,235.7505708662
2026-01-20 17:48:32.303584,22.7765139370,3.0462591110,12.5870000000,6.0000000000,0.1075680000,0.7760820000,35.7273020311,-78.6962733622,10.0000000000,-0.0079669582,-0.0210130430,-0.0002208533,-0.0077819898,1.4602255918,-0.0428720745,235.8444549745
2026-01-20 17:48:32.483424,22.4875943065,0.3646317850,12.5870000000,6.0000000000,0.1797320000,0.8621660000,35.7273020006,-78.6962733025,10.0000000000,-0.0023630363,-0.0084484167,0.0200000000,-0.0700000000,1.5098725460,-0.0431252883,236.0015931745
2026-01-20 17:48:46.131420,7.7977758541,0.0048018960,12.5870000000,6.0000000000,13.6479410000,0.8285010000,35.7273031000,-78.6962771000,10.0000000000,0.0010136972,0.0011493064,-0.0100000000,0.0100000000,0.5000000000,-0.0417203624,249.3543223576
2026-01-20 17:48:46.267489,7.7297616567,2.8862220070,12.5870000000,6.0000000000,0.1362390000,0.8021630000,35.7273031000,-78.6962771000,10.0000000000,0.0010464492,0.0013264465,-0.0100000000,0.0100000000,0.5000000000,-0.0416718720,249.4895394499
2026-01-20 17:48:48.271493,6.7327762478,0.0327084380,12.5870000000,6.0000000000,2.0036420000,0.8802040000,35.7273031000,-78.6962772000,10.0000000000,0.0010101900,0.0015808701,-0.0100000000,0.0200000000,0.4900000000,-0.0429544440,251.4774925194
2026-01-20 17:48:52.643065,4.5209780334,0.0149901380,12.5870000000,6.0000000000,4.3719410000,0.8549400000,35.7273031000,-78.6962771054,10.0000000000,0.0011855847,0.0006884698,-0.0100000000,0.0105381658,0.4900000000,-0.0436230313,254.9461834164
2026-01-20 17:48:54.386960,3.6526231496,0.0375802010,12.5870000000,6.0000000000,1.7438970000,0.8528600000,35.7273031000,-78.6962771000,10.0000000000,0.0012643015,0.0008407689,-0.0100000000,0.0100000000,0.4900000000,-0.0432576864,256.6287537008
2026-01-20 17:48:56.428860,2.6369763215,0.0320990400,12.5870000000,6.0000000000,2.0416810000,0.8612060000,35.7273031000,-78.6962771658,10.0000000000,0.0013160239,0.0017697801,-0.0100000000,0.0165804736,0.4900000000,-0.0432713978,258.6580473570
2026-01-20 17:48:56.617109,2.5434521994,0.3482234420,12.5870000000,6.0000000000,0.1882010000,0.8011460000,35.7273031000,-78.6962771845,10.0000000000,0.0012792727,0.0017107616,-0.0100000000,0.0184509560,0.4900000000,-0.0432305139,258.8450956013
2026-01-20 17:48:56.731175,2.4867830535,1.7196536340,12.5870000000,6.0000000000,0.1143300000,0.8089500000,35.7273031000,-78.6962771958,10.0000000000,0.0012570041,0.0016750005,-0.0100000000,0.0195843389,0.4900000000,-0.0432057411,258.9584338931
2026-01-20 17:48:56.853452,2.4256912050,0.5366700510,12.5870000000,6.0000000000,0.1221160000,0.8631320000,35.7273031000,-78.6962772000,10.0000000000,0.0012453934,0.0016191872,-0.0100000000,0.0200000000,0.4900000000,-0.0432167590,259.0802964043
2026-01-20 17:48:58.440574,1.6326179181,0.0825766910,12.5870000000,6.0000000000,1.5872760000,0.8929360000,35.7273031000,-78.6962772000,10.0000000000,0.0011172507,0.0011206731,-0.0100000000,0.0200000000,0.4900000000,-0.0434246632,260.6640923486
2026-01-20 17:49:00.860812,0.4332911287,0.0812395850,12.5870000000,6.0000000000,2.4201010000,0.9049990000,35.7273031000,-78.6962771000,10.0000000000,0.0009650753,0.0003798304,-0.0092503813,0.0092503813,0.4450228776,-0.0433552034,263.0749618706
2026-01-20 17:49:00.992696,0.3780722118,0.4964660430,12.5870000000,6.0000000000,0.1320050000,0.9649750000,35.7273031000,-78.6962771000,10.0000000000,0.0009088695,0.0004068832,-0.0079449695,0.0079449695,0.3666981728,-0.0433372515,263.2055030454
2026-01-20 17:49:01.103185,0.3318113147,0.5930913400,12.5870000000,6.0000000000,0.1104990000,0.9613220000,35.7273031000,-78.6962771000,10.0000000000,0.0008617818,0.0004295473,-0.0068513313,0.0068513313,0.3010798790,-0.0433222118,263.3148668684
2026-01-20 17:49:03.058859,0.0217125571,0.0335132680,12.5870000000,6.0000000000,1.9555240000,0.9968340000,35.7273031000,-78.6962771000,10.0000000000,0.0004900231,0.0003790246,0.0000000000,0.0000000000,0.0100000000,-0.0434422694,265.2541603189
