time,Altitude,Bandwidth(MBits/sec),BatteryVolts,GPSFix,ID,Interval(sec),Latitude,Longitude,NumberOfSatellites,Pitch,Roll,Transfer(MBytes),VelocityX,VelocityY,VelocityZ,Yaw,num
2026-01-19 15:38:42.699012,-1.4910000000,20.1857103249,48.3750000000,4.0000000000,5.0000000000,,35.7274726000,-78.6962508000,29.0000000000,-0.0308390073,-0.0735527128,2.4085710325,0.0000000000,-0.0100000000,0.0000000000,0.0339559503,17.0000000000
2026-01-19 15:38:43.702115,-1.5010000000,17.1680700299,48.3650000000,4.0000000000,5.0000000000,,35.7274726000,-78.6962509000,29.0000000000,-0.0306441113,-0.0734053403,2.0499188095,0.0000000000,-0.0100000000,0.0000000000,0.0342414565,18.0000000000
2026-01-19 15:38:44.705647,-1.5100000000,2.6009269691,48.3680000000,4.0000000000,5.0000000000,,35.7274727000,-78.6962509000,29.0000000000,-0.0306433104,-0.0733508617,0.3106249923,0.0000000000,0.0000000000,0.0000000000,0.0345930904,19.0000000000
2026-01-19 15:38:45.708675,-1.5050000000,18.1409602326,48.3680000000,4.0000000000,5.0000000000,,35.7274727000,-78.6962508000,29.0000000000,-0.0306713544,-0.0731007010,2.1663047896,0.0000000000,0.0000000000,0.0000000000,0.0344108380,20.0000000000
2026-01-19 15:38:46.711560,-1.5180000000,21.6689015046,48.3630000000,4.0000000000,5.0000000000,,35.7274727000,-78.6962508000,29.0000000000,-0.0310131013,-0.0729345530,2.5868901505,0.0000000000,0.0000000000,0.0000000000,0.0343747139,21.0000000000
2026-01-19 15:38:47.714559,-1.5140000000,21.5158488160,48.3730000000,4.0000000000,5.0000000000,,35.7274727000,-78.6962508000,29.0000000000,-0.0309045203,-0.0730958283,2.5700000000,-0.0100000000,0.0000000000,0.0000000000,0.0344753712,22.0000000000
2026-01-19 15:38:48.718086,-1.5250000000,19.2852127691,48.3650000000,4.0000000000,5.0000000000,,35.7274727000,-78.6962507000,29.0000000000,-0.0308913440,-0.0731144547,146.6456617784,-0.0100000000,0.0100000000,0.0000000000,0.0345869102,23.0000000000
2026-01-19 15:38:49.721840,-1.5160000000,7.2237935994,48.3690000000,4.0000000000,5.0000000000,,35.7274727000,-78.6962506000,29.0000000000,-0.0309852809,-0.0732199997,881.5557630025,-0.0100000000,0.0000000000,0.0000000000,0.0346478857,24.0000000000
2026-01-19 15:38:50.724920,-1.5270000000,6.8626118314,48.3600000000,4.0000000000,5.0000000000,,35.7274727000,-78.6962506000,29.0000000000,-0.0311926380,-0.0731789023,837.7809656537,-0.0100000000,0.0000000000,0.0000000000,0.0347461179,25.0000000000
2026-01-19 15:38:51.728848,-1.5230000000,7.1474323606,48.3560000000,4.0000000000,5.0000000000,,35.7274727000,-78.6962506000,29.0000000000,-0.0313516706,-0.0735210776,872.1882152172,-0.0100000000,0.0000000000,0.0000000000,0.0349231213,26.0000000000
2026-01-19 15:38:52.732835,-1.5120000000,5.5981211838,48.3620000000,4.0000000000,5.0000000000,,35.7274726000,-78.6962506000,29.0000000000,-0.0313206390,-0.0736582279,683.3000856637,0.0000000000,0.0000000000,0.0000000000,0.0352256559,27.0000000000
2026-01-19 15:38:53.736521,-1.4920000000,4.1825661016,48.3710000000,4.0000000000,5.0000000000,,35.7274726000,-78.6962506000,29.0000000000,-0.0313393958,-0.0737283975,0.5102009512,0.0000000000,0.0000000000,0.0000000000,0.0353286043,28.0000000000
2026-01-19 15:38:54.740199,0.0030000000,20.2980350671,48.3670000000,4.0000000000,5.0000000000,,35.7274727000,-78.6962506000,29.0000000000,-0.0314955153,-0.0736062676,169.5033247684,0.0000000000,0.0000000000,0.0000000000,0.0353428647,29.0000000000
2026-01-19 15:38:55.744048,-0.0020000000,7.4174414824,48.3640000000,4.0000000000,5.0000000000,,35.7274727000,-78.6962506000,29.0000000000,-0.0316593051,-0.0733748227,905.3681729490,0.0000000000,0.0000000000,0.0000000000,0.0351699814,30.0000000000
2026-01-19 15:38:56.748877,-0.0140000000,7.2756533406,48.2000000000,4.0000000000,5.0000000000,,35.7274727000,-78.6962506000,29.0000000000,-0.0316972919,-0.0729107261,888.4084646831,0.0000000000,0.0000000000,0.0000000000,0.0353961475,31.0000000000
2026-01-19 15:38:57.751979,-0.0190000000,6.8941195393,48.2470000000,4.0000000000,5.0000000000,,35.7274726000,-78.6962506000,29.0000000000,-0.0317405090,-0.0732476115,841.2984642533,0.0000000000,0.0000000000,0.0000000000,0.0352374911,32.0000000000
2026-01-19 15:38:58.755483,-0.0210000000,4.8764688793,46.1380000000,4.0000000000,5.0000000000,,35.7274726000,-78.6962505000,29.0000000000,-0.0303074159,-0.0687798560,595.7459517543,0.0000000000,0.0200000000,0.0000000000,0.0358587280,33.0000000000
2026-01-19 15:39:01.765079,4.9440000000,6.1344293378,46.2590000000,4.0000000000,5.0000000000,,35.7274710000,-78.6962450000,29.0000000000,-0.0282528661,-0.0570251979,749.2626799235,0.0400000000,0.0200000000,-2.4800000000,-0.0872697607,36.0000000000
2026-01-19 15:39:02.768713,7.3870000000,5.6167197269,46.0290000000,4.0000000000,5.0000000000,,35.7274714000,-78.6962455000,29.0000000000,-0.0256558210,-0.0527022295,685.0741692602,0.0700000000,-0.1000000000,-2.2800000000,-0.0939333886,37.0000000000
2026-01-19 15:39:03.771489,9.8470000000,6.2181550880,45.9980000000,4.0000000000,5.0000000000,,35.7274719000,-78.6962469000,29.0000000000,-0.0269404575,-0.0480866544,759.1078440858,0.0800000000,-0.2000000000,-2.4000000000,-0.0929864720,38.0000000000
2026-01-19 15:39:04.774785,12.3570000000,6.8627925504,46.0890000000,4.0000000000,5.0000000000,,35.7274728000,-78.6962484000,29.0000000000,-0.0111286892,-0.0469660200,613.6316366229,0.0600000000,-0.1500000000,-2.4600000000,-0.0937791318,39.0000000000
2026-01-19 15:39:05.778088,14.8420000000,7.6862705174,45.9360000000,4.0000000000,5.0000000000,,35.7274729000,-78.6962496000,29.0000000000,-0.0178886261,-0.0432312153,140.4178267026,-0.0500000000,-0.1000000000,-2.3600000000,-0.0880758688,40.0000000000
2026-01-19 15:39:06.781494,17.2730000000,4.8118520993,45.9060000000,4.0000000000,5.0000000000,,35.7274724000,-78.6962505000,29.0000000000,-0.0228837710,-0.0343198739,587.5205241829,-0.0300000000,-0.0600000000,-2.4600000000,-0.0899631158,41.0000000000
2026-01-19 15:39:07.784893,19.7720000000,3.9039938054,46.0160000000,4.0000000000,5.0000000000,,35.7274719000,-78.6962508000,29.0000000000,-0.0300473198,-0.0407039933,476.1199617440,-0.0400000000,0.0000000000,-2.4700000000,-0.0860230327,42.0000000000
2026-01-19 15:39:08.787561,21.9470000000,5.2368438927,46.1180000000,4.0000000000,5.0000000000,,35.7274716000,-78.6962509000,29.0000000000,-0.0325644575,-0.0335189253,639.3323596860,0.0000000000,-0.0300000000,-1.8500000000,-0.0816325918,43.0000000000
2026-01-19 15:39:09.790553,23.5000000000,7.6124879265,46.1830000000,4.0000000000,5.0000000000,,35.7274715000,-78.6962512000,29.0000000000,-0.0281255804,-0.0205827355,637.9776309261,0.0000000000,-0.0300000000,-1.3200000000,-0.0788338929,44.0000000000
2026-01-19 15:39:10.795116,24.6280000000,12.8054325395,46.3560000000,4.0000000000,5.0000000000,,35.7274717000,-78.6962511000,29.0000000000,-0.0393729210,-0.0242138021,1.5307396607,0.0800000000,0.0400000000,-0.7500000000,-0.0751095489,45.0000000000
2026-01-19 15:39:11.798040,25.0450000000,17.4751753059,46.1840000000,4.0000000000,5.0000000000,,35.7274733000,-78.6962503000,29.0000000000,-0.0123846335,-0.0403841101,182.6674958797,0.2300000000,0.0200000000,-0.0200000000,-0.0767038092,46.0000000000
2026-01-19 15:39:12.800981,24.9220000000,6.0710167521,45.9130000000,4.0000000000,5.0000000000,,35.7274748000,-78.6962501000,29.0000000000,0.0014432659,-0.0307024606,741.1220102492,0.0900000000,-0.0200000000,0.0800000000,-0.0807662457,47.0000000000
2026-01-19 15:39:13.804551,24.9310000000,6.0740596653,46.0160000000,4.0000000000,5.0000000000,,35.7274747000,-78.6962503000,29.0000000000,-0.0069609685,-0.0329583511,741.8847331641,-0.1300000000,-0.0400000000,-0.1200000000,-0.0787671134,48.0000000000
2026-01-19 15:39:14.808265,24.9570000000,6.5273901693,45.9980000000,4.0000000000,5.0000000000,,35.7274732000,-78.6962506000,29.0000000000,-0.0240604766,-0.0253244117,797.2346236968,-0.1700000000,-0.0200000000,-0.0500000000,-0.0780708939,49.0000000000
2026-01-19 15:39:15.811439,24.9320000000,6.7785718488,45.7530000000,4.0000000000,5.0000000000,,35.7274720000,-78.6962525000,29.0000000000,-0.0377501510,-0.3082606792,827.2415178153,-0.1200000000,-0.8100000000,0.0700000000,-0.0796880051,50.0000000000
2026-01-19 15:39:16.815225,24.9270000000,7.5085629412,45.6980000000,4.0000000000,5.0000000000,,35.7274705000,-78.6962767000,29.0000000000,-0.0254383758,-0.3229105771,916.5238905648,-0.2300000000,-3.4700000000,-0.0100000000,-0.0796831101,51.0000000000
2026-01-19 15:39:17.818741,25.0990000000,7.5078250625,46.1460000000,4.0000000000,5.0000000000,,35.7274684000,-78.6963252000,29.0000000000,-0.0195328854,-0.1204025298,647.6424960294,-0.2400000000,-4.9100000000,-0.1100000000,-0.0836441964,52.0000000000
2026-01-19 15:39:18.822338,25.1290000000,8.3414203233,46.3020000000,4.0000000000,5.0000000000,,35.7274653000,-78.6963800000,29.0000000000,-0.0120679755,-0.0900894254,266.4724439987,-0.4500000000,-5.0300000000,0.1400000000,-0.0854247659,53.0000000000
2026-01-19 15:39:19.825992,24.9630000000,10.5606040132,46.1390000000,4.0000000000,5.0000000000,,35.7274609000,-78.6964363000,29.0000000000,-0.0381556153,-0.0778405964,729.1752851374,-0.4300000000,-5.1200000000,0.0800000000,-0.0850448832,54.0000000000
2026-01-19 15:39:20.829725,24.8940000000,17.9030262218,46.0320000000,4.0000000000,5.0000000000,,35.7274574000,-78.6964928000,29.0000000000,-0.0429405123,-0.0710936785,2.1294577239,-0.3100000000,-5.1700000000,-0.0700000000,-0.0840153545,55.0000000000
2026-01-19 15:39:21.833451,24.9370000000,19.9116763180,46.1790000000,4.0000000000,5.0000000000,,35.7274545000,-78.6965493000,29.0000000000,-0.0411134809,-0.0778364539,2.3728464100,-0.3000000000,-5.0200000000,-0.0600000000,-0.0786001608,56.0000000000
2026-01-19 15:39:22.837081,24.9150000000,17.1577689843,46.0260000000,4.0000000000,5.0000000000,,35.7274523000,-78.6966039000,29.0000000000,-0.0376035497,-0.0865550786,2.0420562981,-0.2000000000,-4.9000000000,0.0200000000,-0.0780779272,57.0000000000
2026-01-19 15:39:23.840151,24.9930000000,12.7852164383,46.3580000000,4.0000000000,5.0000000000,,35.7274503000,-78.6966563000,29.0000000000,-0.0178952925,0.0299561769,1.5185216438,-0.2800000000,-4.3900000000,-0.1900000000,-0.0754046068,58.0000000000
2026-01-19 15:39:24.843123,24.9670000000,11.3064296958,46.2960000000,4.0000000000,5.0000000000,,35.7274475000,-78.6966976000,29.0000000000,-0.0337384418,0.1007319689,246.8091664642,-0.2800000000,-3.0600000000,-0.0500000000,-0.0741051137,59.0000000000
2026-01-19 15:39:25.847046,24.8840000000,8.4093184899,45.9870000000,4.0000000000,5.0000000000,,35.7274453000,-78.6967217000,29.0000000000,-0.0339323021,0.1565897316,607.3429611877,-0.1300000000,-1.2700000000,0.0700000000,-0.0859893188,60.0000000000
2026-01-19 15:39:26.850858,24.8350000000,14.1057682846,45.8820000000,4.0000000000,5.0000000000,,35.7274451000,-78.6967275000,29.0000000000,-0.0408071727,0.0274910908,1.6847962688,0.1400000000,-0.0400000000,-0.1600000000,-0.0830626413,61.0000000000
2026-01-19 15:39:27.870704,24.9410000000,18.9674739687,46.0060000000,4.0000000000,5.0000000000,,35.7274466000,-78.6967266000,29.0000000000,-0.0273418576,-0.0323950313,2.2578719630,0.1800000000,0.1200000000,-0.1100000000,-0.0764446110,62.0000000000
2026-01-19 15:39:28.874248,24.9500000000,11.2539535218,45.7570000000,4.0000000000,5.0000000000,,35.7274484000,-78.6967269000,29.0000000000,-0.0944072753,-0.3067251146,1.3436538447,0.2700000000,-0.6300000000,0.0400000000,-0.0694259778,63.0000000000
2026-01-19 15:39:29.877705,24.9070000000,0.0000000000,45.5840000000,4.0000000000,5.0000000000,,35.7274529000,-78.6967489000,29.0000000000,-0.1032164320,-0.3182769120,0.0000000000,0.7100000000,-3.2700000000,-0.0600000000,-0.0659744740,64.0000000000
2026-01-19 15:39:30.881125,25.0070000000,0.0000000000,45.7240000000,4.0000000000,5.0000000000,,35.7274604000,-78.6967954000,29.0000000000,-0.0632603541,-0.1410658658,0.0000000000,0.9300000000,-4.6500000000,-0.0500000000,-0.0711196810,65.0000000000
2026-01-19 15:39:31.884138,25.1090000000,0.9132330588,45.8710000000,4.0000000000,5.0000000000,,35.7274687000,-78.6968478000,29.0000000000,-0.0690162331,-0.1132615954,111.6173738501,0.9700000000,-4.7700000000,0.0000000000,-0.0633771643,66.0000000000
2026-01-19 15:39:32.887583,25.0520000000,3.5458656000,45.8030000000,4.0000000000,5.0000000000,,35.7274779000,-78.6969005000,29.0000000000,-0.0711797550,-0.1228178293,433.1625600000,1.1100000000,-4.7800000000,0.1400000000,-0.0625367537,67.0000000000
2026-01-19 15:39:33.890706,25.0250000000,4.7520892032,45.7660000000,4.0000000000,5.0000000000,,35.7274883000,-78.6969535000,29.0000000000,-0.0698416233,-0.1310668588,580.1814184960,1.2000000000,-4.8800000000,0.0200000000,-0.0668820664,68.0000000000
2026-01-19 15:39:34.894051,25.0140000000,5.0866207142,45.8550000000,4.0000000000,5.0000000000,,35.7274995000,-78.6970081000,29.0000000000,-0.0588935241,-0.1266268641,621.2927447398,1.3100000000,-5.0200000000,-0.0200000000,-0.0661111623,69.0000000000
2026-01-19 15:39:35.897502,24.9480000000,7.0380409447,45.8080000000,4.0000000000,5.0000000000,,35.7275113000,-78.6970639000,29.0000000000,-0.0345075130,-0.1199568957,859.4869291093,1.2400000000,-5.0800000000,0.0000000000,-0.0706418827,70.0000000000
2026-01-19 15:39:36.900385,24.9170000000,6.8125724369,45.8010000000,4.0000000000,5.0000000000,,35.7275219000,-78.6971195000,29.0000000000,-0.0464311913,-0.1080908626,831.3709668872,1.1000000000,-5.0700000000,-0.0700000000,-0.0692683682,71.0000000000
2026-01-19 15:39:37.903724,24.9390000000,5.4920603324,45.8250000000,4.0000000000,5.0000000000,,35.7275310000,-78.6971752000,29.0000000000,-0.0693335906,-0.0933241695,670.9089330505,0.9800000000,-4.9800000000,-0.0500000000,-0.0654154867,72.0000000000
2026-01-19 15:39:38.906977,24.9420000000,4.4375662977,45.8690000000,4.0000000000,5.0000000000,,35.7275403000,-78.6972293000,29.0000000000,-0.0676363111,-0.1049973667,541.6694171335,1.0800000000,-4.8400000000,-0.0300000000,-0.0656036437,73.0000000000
2026-01-19 15:39:39.909995,24.9160000000,4.7515171732,45.7890000000,4.0000000000,5.0000000000,,35.7275505000,-78.6972826000,29.0000000000,-0.0716910586,-0.1094791293,580.0281294784,1.0900000000,-4.7500000000,0.0200000000,-0.0667745546,74.0000000000
2026-01-19 15:39:40.914606,24.9050000000,3.8657441003,45.8750000000,4.0000000000,5.0000000000,,35.7275609000,-78.6973351000,29.0000000000,-0.0678788200,-0.1220907122,471.7985389508,1.1200000000,-4.7900000000,-0.1100000000,-0.0660318434,75.0000000000
2026-01-19 15:39:41.918345,24.9360000000,4.2401259671,45.8360000000,4.0000000000,5.0000000000,,35.7275712000,-78.6973887000,29.0000000000,-0.0759357587,-0.1195259541,517.9654922947,1.1200000000,-4.8500000000,-0.0300000000,-0.0648274869,76.0000000000
2026-01-19 15:39:42.921670,24.9750000000,6.9021460022,45.8090000000,4.0000000000,5.0000000000,,35.7275819000,-78.6974424000,29.0000000000,-0.0647468567,-0.1238651723,842.6338476410,1.2700000000,-4.8600000000,0.0200000000,-0.0701140761,77.0000000000
2026-01-19 15:39:43.925153,24.9580000000,4.0528535100,45.9630000000,4.0000000000,5.0000000000,,35.7275928000,-78.6974973000,29.0000000000,-0.0585846677,-0.1119797528,494.2966196780,1.2000000000,-4.9400000000,-0.1000000000,-0.0685014725,78.0000000000
2026-01-19 15:39:46.934921,24.9460000000,0.0000000000,45.9700000000,4.0000000000,5.0000000000,,35.7276252000,-78.6976743000,29.0000000000,-0.0406849533,-0.0301734768,0.0000000000,1.1000000000,-4.7500000000,-0.1000000000,-0.0724478513,81.0000000000
2026-01-19 15:39:47.938502,24.9790000000,0.0000000000,45.9960000000,4.0000000000,5.0000000000,,35.7276341000,-78.6977217000,29.0000000000,-0.0137832090,0.0644696057,0.0000000000,0.8600000000,-3.6100000000,-0.0500000000,-0.0665514469,82.0000000000
2026-01-19 15:39:48.942158,24.8490000000,0.0000000000,45.7960000000,4.0000000000,5.0000000000,,35.7276404000,-78.6977534000,29.0000000000,0.0112924548,0.1201357692,0.0000000000,0.4900000000,-2.0500000000,-0.0300000000,-0.0633360595,83.0000000000
2026-01-19 15:39:49.945972,24.8680000000,0.0000000000,45.7570000000,4.0000000000,5.0000000000,,35.7276433000,-78.6977660000,29.0000000000,-0.0025361879,0.0688251853,0.0000000000,0.1100000000,-0.3900000000,-0.1200000000,-0.0686500967,84.0000000000
2026-01-19 15:39:50.949969,24.9150000000,0.0000000000,45.6450000000,4.0000000000,5.0000000000,,35.7276439000,-78.6977662000,29.0000000000,-0.0225492883,-0.0265453458,0.0000000000,0.0000000000,0.1700000000,0.0000000000,-0.0690755397,85.0000000000
2026-01-19 15:39:51.953589,24.9510000000,0.0000000000,45.5340000000,4.0000000000,5.0000000000,,35.7276439000,-78.6977644000,29.0000000000,-0.0691533014,-0.1710141301,0.0000000000,0.0300000000,0.0100000000,0.0000000000,-0.0614550523,86.0000000000
2026-01-19 15:39:52.956859,24.9070000000,0.0000000000,45.2860000000,4.0000000000,5.0000000000,,35.7276463000,-78.6977768000,29.0000000000,-0.1052046269,-0.3188588619,0.0000000000,0.5200000000,-2.4400000000,-0.0500000000,-0.0651865900,87.0000000000
2026-01-19 15:39:53.959765,25.0190000000,0.0000000000,45.5920000000,4.0000000000,5.0000000000,,35.7276529000,-78.6978171000,29.0000000000,-0.0808992311,-0.1816212088,0.0000000000,0.9000000000,-4.5700000000,-0.1700000000,-0.0666065142,88.0000000000
2026-01-19 15:39:56.969423,24.9590000000,0.0000000000,45.7220000000,4.0000000000,5.0000000000,,35.7276810000,-78.6979771000,29.0000000000,-0.0626005158,-0.0789354146,0.0000000000,1.1800000000,-4.8800000000,-0.0500000000,-0.0625208840,91.0000000000
2026-01-19 15:39:57.973007,25.0710000000,0.0000000000,45.9520000000,4.0000000000,5.0000000000,,35.7276912000,-78.6980313000,29.0000000000,-0.0680271834,-0.0830075592,0.0000000000,1.0600000000,-4.9200000000,-0.0400000000,-0.0574131012,92.0000000000
2026-01-19 15:39:58.976394,25.0630000000,0.0000000000,46.0620000000,4.0000000000,5.0000000000,,35.7277012000,-78.6980855000,29.0000000000,-0.0767953768,-0.0793582350,0.0000000000,1.1800000000,-4.9100000000,0.0100000000,-0.0568175241,93.0000000000
2026-01-19 15:39:59.979534,24.9790000000,0.0000000000,45.9280000000,4.0000000000,5.0000000000,,35.7277120000,-78.6981400000,29.0000000000,-0.0666330233,-0.0772377700,0.0000000000,1.1900000000,-4.9200000000,0.0100000000,-0.0610194243,94.0000000000
2026-01-19 15:40:00.983194,24.9850000000,0.0000000000,45.9530000000,4.0000000000,5.0000000000,,35.7277229000,-78.6981942000,29.0000000000,-0.0659924671,-0.0743973106,0.0000000000,1.2200000000,-4.8400000000,0.0300000000,-0.0597965755,95.0000000000
2026-01-19 15:40:01.986606,24.9730000000,0.0000000000,45.9180000000,4.0000000000,5.0000000000,,35.7277338000,-78.6982480000,29.0000000000,-0.0595683940,-0.0769507289,0.0000000000,1.2000000000,-4.8400000000,0.0000000000,-0.0606449768,96.0000000000
2026-01-19 15:40:02.989498,24.9680000000,0.0000000000,45.9470000000,4.0000000000,5.0000000000,,35.7277445000,-78.6983013000,29.0000000000,-0.0557938106,-0.0811020732,0.0000000000,1.1200000000,-4.8600000000,-0.0400000000,-0.0608034022,97.0000000000
2026-01-19 15:40:03.992912,24.9700000000,0.0000000000,45.8770000000,4.0000000000,5.0000000000,,35.7277548000,-78.6983549000,29.0000000000,-0.0564420819,-0.0779267401,0.0000000000,1.1300000000,-4.8700000000,0.0000000000,-0.0600375868,98.0000000000
2026-01-19 15:40:04.996844,25.0080000000,0.0000000000,45.8750000000,4.0000000000,5.0000000000,,35.7277655000,-78.6984080000,29.0000000000,-0.0510993339,-0.0891704410,0.0000000000,1.1300000000,-4.8500000000,0.0200000000,-0.0596461557,99.0000000000
2026-01-19 15:40:06.000265,25.0020000000,0.0000000000,45.9280000000,4.0000000000,5.0000000000,,35.7277760000,-78.6984618000,29.0000000000,-0.0399545096,-0.0836877227,0.0000000000,1.1200000000,-4.9100000000,-0.0400000000,-0.0635546297,100.0000000000
2026-01-19 15:40:07.003221,25.0080000000,0.0000000000,45.8840000000,4.0000000000,5.0000000000,,35.7277855000,-78.6985157000,29.0000000000,-0.0674488842,-0.0976194441,0.0000000000,1.0300000000,-4.8600000000,0.0200000000,-0.0571505800,101.0000000000
2026-01-19 15:40:08.006080,25.0000000000,0.0000000000,45.8400000000,4.0000000000,5.0000000000,,35.7277948000,-78.6985699000,29.0000000000,-0.0551547371,-0.0891781151,0.0000000000,1.0600000000,-4.9100000000,0.0700000000,-0.0608671047,102.0000000000
2026-01-19 15:40:09.009421,24.9870000000,0.0000000000,45.6890000000,4.0000000000,5.0000000000,,35.7278040000,-78.6986246000,29.0000000000,-0.0739703476,-0.0814615339,0.0000000000,1.0800000000,-4.9800000000,-0.0100000000,-0.0538291037,103.0000000000
2026-01-19 15:40:10.012247,25.0040000000,0.0000000000,45.6890000000,4.0000000000,5.0000000000,,35.7278142000,-78.6986792000,29.0000000000,-0.0496489853,-0.0812123120,0.0000000000,1.1700000000,-4.9000000000,0.0400000000,-0.0633540526,104.0000000000
2026-01-19 15:40:11.015454,25.0550000000,0.0000000000,46.0990000000,4.0000000000,5.0000000000,,35.7278241000,-78.6987317000,29.0000000000,-0.0113705099,0.0316135027,0.0000000000,0.9900000000,-4.3400000000,-0.1300000000,-0.0615279302,105.0000000000
2026-01-19 15:40:12.019032,24.9160000000,0.0000000000,45.6910000000,4.0000000000,5.0000000000,,35.7278319000,-78.6987730000,29.0000000000,-0.0040738164,0.1102531105,0.0000000000,0.7500000000,-2.9600000000,0.1200000000,-0.0594063029,106.0000000000
2026-01-19 15:40:13.023605,24.8500000000,0.0000000000,45.6670000000,4.0000000000,5.0000000000,,35.7278369000,-78.6987964000,29.0000000000,0.0265637971,0.1245186478,0.0000000000,0.2700000000,-1.2100000000,-0.0600000000,-0.0629668906,107.0000000000
2026-01-19 15:40:14.027409,24.8720000000,0.0000000000,45.3700000000,4.0000000000,5.0000000000,,35.7278378000,-78.6988027000,29.0000000000,-0.0283341482,0.0243600439,0.0000000000,-0.0100000000,-0.0700000000,-0.0400000000,-0.0645372570,108.0000000000
2026-01-19 15:40:15.031205,24.9320000000,0.0000000000,45.3740000000,4.0000000000,5.0000000000,,35.7278378000,-78.6988012000,29.0000000000,-0.0390697420,-0.0448206998,0.0000000000,0.0200000000,0.2200000000,-0.0900000000,-0.0655185133,109.0000000000
2026-01-19 15:40:16.034897,25.0710000000,0.0000000000,45.4740000000,4.0000000000,5.0000000000,,35.7278384000,-78.6988008000,29.0000000000,-0.1214076579,-0.3045206666,0.0000000000,0.2100000000,-0.6200000000,-0.0400000000,-0.0407908484,110.0000000000
2026-01-19 15:40:17.037375,25.0600000000,0.0000000000,45.2330000000,4.0000000000,5.0000000000,,35.7278424000,-78.6988216000,29.0000000000,-0.1028975248,-0.3290076256,0.0000000000,0.6500000000,-3.2000000000,0.0800000000,-0.0567140989,111.0000000000
2026-01-19 15:40:18.041133,25.1880000000,0.0000000000,45.5820000000,4.0000000000,5.0000000000,,35.7278494000,-78.6988683000,29.0000000000,-0.0916525573,-0.1370023489,0.0000000000,0.8800000000,-4.7800000000,0.0000000000,-0.0514526963,112.0000000000
2026-01-19 15:40:19.044103,25.2060000000,0.0000000000,45.7270000000,4.0000000000,5.0000000000,,35.7278580000,-78.6989229000,29.0000000000,-0.0818628818,-0.0810546130,0.0000000000,1.0900000000,-4.9300000000,0.1800000000,-0.0486363284,113.0000000000
2026-01-19 15:40:20.047689,25.0300000000,0.0000000000,45.5750000000,4.0000000000,5.0000000000,,35.7278687000,-78.6989771000,29.0000000000,-0.0765555277,-0.0857882053,0.0000000000,1.2700000000,-4.8800000000,0.0200000000,-0.0516993962,114.0000000000
2026-01-19 15:40:21.051487,25.0610000000,0.0000000000,45.5640000000,4.0000000000,5.0000000000,,35.7278804000,-78.6990301000,29.0000000000,-0.0679956228,-0.1045317799,0.0000000000,1.3200000000,-4.7500000000,0.0300000000,-0.0499117896,115.0000000000
2026-01-19 15:40:22.054669,25.0540000000,0.0000000000,45.5770000000,4.0000000000,5.0000000000,,35.7278921000,-78.6990830000,29.0000000000,-0.0584440231,-0.1165039092,0.0000000000,1.2700000000,-4.8300000000,0.0800000000,-0.0548783876,116.0000000000
2026-01-19 15:40:23.058143,24.9900000000,0.0000000000,45.6150000000,4.0000000000,5.0000000000,,35.7279037000,-78.6991370000,29.0000000000,-0.0546318069,-0.1072876453,0.0000000000,1.2800000000,-4.9100000000,0.0000000000,-0.0542928241,117.0000000000
2026-01-19 15:40:24.061778,25.0110000000,0.0000000000,45.7250000000,4.0000000000,5.0000000000,,35.7279150000,-78.6991919000,29.0000000000,-0.0401122645,-0.1049914956,0.0000000000,1.2400000000,-5.0100000000,-0.0500000000,-0.0553477854,118.0000000000
2026-01-19 15:40:25.065333,24.9870000000,0.0000000000,45.7270000000,4.0000000000,5.0000000000,,35.7279255000,-78.6992474000,29.0000000000,-0.0320238955,-0.0777503699,0.0000000000,1.1000000000,-5.0300000000,-0.0400000000,-0.0593048185,119.0000000000
2026-01-19 15:40:26.068158,24.8490000000,0.0000000000,45.3120000000,4.0000000000,5.0000000000,,35.7279351000,-78.6993028000,29.0000000000,-0.0383993946,-0.0854514092,0.0000000000,0.9800000000,-4.9700000000,0.1200000000,-0.0664611980,120.0000000000
2026-01-19 15:40:27.071815,24.8950000000,0.0000000000,45.5780000000,4.0000000000,5.0000000000,,35.7279438000,-78.6993573000,29.0000000000,-0.0653758794,-0.0704786777,0.0000000000,1.0200000000,-4.8900000000,-0.2300000000,-0.0562098064,121.0000000000
2026-01-19 15:40:28.074718,25.0010000000,0.0000000000,45.6080000000,4.0000000000,5.0000000000,,35.7279532000,-78.6994107000,29.0000000000,-0.0694400668,-0.0679104924,0.0000000000,1.0900000000,-4.8200000000,-0.0800000000,-0.0502180159,122.0000000000
2026-01-19 15:40:29.077791,24.9710000000,0.0000000000,45.5820000000,4.0000000000,5.0000000000,,35.7279633000,-78.6994637000,29.0000000000,-0.0533620082,-0.0769816935,0.0000000000,1.1600000000,-4.8500000000,0.0100000000,-0.0542279743,123.0000000000
2026-01-19 15:40:30.080726,24.9250000000,0.0000000000,45.8480000000,4.0000000000,5.0000000000,,35.7279741000,-78.6995175000,29.0000000000,-0.0511225238,-0.0742447674,0.0000000000,1.2200000000,-4.9400000000,-0.1600000000,-0.0551174916,124.0000000000
2026-01-19 15:40:31.083734,24.8810000000,0.0000000000,45.5030000000,4.0000000000,5.0000000000,,35.7279856000,-78.6995717000,29.0000000000,-0.0457106754,-0.0606675930,0.0000000000,1.3200000000,-4.9200000000,-0.0300000000,-0.0566698164,125.0000000000
2026-01-19 15:40:32.086970,24.8690000000,0.0000000000,45.4200000000,4.0000000000,5.0000000000,,35.7279977000,-78.6996253000,29.0000000000,-0.0306661986,-0.0824781358,0.0000000000,1.2600000000,-4.7800000000,-0.0600000000,-0.0595106222,126.0000000000
2026-01-19 15:40:33.090651,24.9820000000,0.0000000000,45.5280000000,4.0000000000,5.0000000000,,35.7280083000,-78.6996781000,29.0000000000,-0.0383813940,-0.0944710970,0.0000000000,1.0900000000,-4.7300000000,-0.0700000000,-0.0562897176,127.0000000000
2026-01-19 15:40:34.093711,24.9600000000,0.0000000000,45.3970000000,4.0000000000,5.0000000000,,35.7280182000,-78.6997307000,29.0000000000,-0.0323071219,-0.0933695138,0.0000000000,1.1300000000,-4.8000000000,-0.0400000000,-0.0565977171,128.0000000000
2026-01-19 15:40:35.096538,25.0340000000,0.0000000000,45.5210000000,4.0000000000,5.0000000000,,35.7280281000,-78.6997842000,29.0000000000,-0.0325850546,-0.0929102451,0.0000000000,0.9900000000,-4.8800000000,0.0500000000,-0.0573941730,129.0000000000
2026-01-19 15:40:36.099747,25.0710000000,0.0000000000,45.6370000000,4.0000000000,5.0000000000,,35.7280365000,-78.6998391000,29.0000000000,-0.0659144372,-0.0828518569,0.0000000000,0.9200000000,-4.9500000000,0.0600000000,-0.0497604236,130.0000000000
2026-01-19 15:40:37.103117,24.9550000000,0.0000000000,45.5690000000,4.0000000000,5.0000000000,,35.7280453000,-78.6998934000,29.0000000000,-0.0676245540,-0.0868179947,0.0000000000,1.1000000000,-4.8400000000,0.0300000000,-0.0501831397,131.0000000000
2026-01-19 15:40:38.114957,24.9390000000,0.0000000000,45.7250000000,4.0000000000,5.0000000000,,35.7280557000,-78.6999447000,29.0000000000,-0.0155373327,0.0196378231,0.0000000000,1.1600000000,-4.2500000000,-0.1600000000,-0.0533440001,132.0000000000
2026-01-19 15:40:39.118265,24.9870000000,0.0000000000,45.8550000000,4.0000000000,5.0000000000,,35.7280648000,-78.6999851000,29.0000000000,0.0120940572,0.0657830536,0.0000000000,0.8000000000,-2.9800000000,-0.0700000000,-0.0505018160,133.0000000000
2026-01-19 15:40:40.122019,24.8740000000,0.0000000000,45.6270000000,4.0000000000,5.0000000000,,35.7280703000,-78.7000096000,29.0000000000,0.0301500447,0.1228078902,0.0000000000,0.3400000000,-1.3900000000,0.0900000000,-0.0471014678,134.0000000000
2026-01-19 15:40:41.125302,24.7700000000,0.0000000000,45.3350000000,4.0000000000,5.0000000000,,35.7280718000,-78.7000167000,29.0000000000,-0.0224890616,0.0162848253,0.0000000000,0.0600000000,-0.1500000000,-0.0500000000,-0.0568438657,135.0000000000
2026-01-19 15:40:42.128111,24.8330000000,0.0000000000,45.3220000000,4.0000000000,5.0000000000,,35.7280720000,-78.7000166000,29.0000000000,-0.0325331539,-0.0477308370,0.0000000000,-0.0300000000,0.0300000000,-0.1700000000,-0.0513918921,136.0000000000
2026-01-19 15:40:43.131341,24.9030000000,0.0000000000,45.0810000000,4.0000000000,5.0000000000,,35.7280721000,-78.7000179000,29.0000000000,-0.0999240875,-0.3047669232,0.0000000000,0.1500000000,-0.7300000000,-0.0200000000,-0.0414055809,137.0000000000
2026-01-19 15:40:44.134863,24.8250000000,0.0000000000,45.0400000000,4.0000000000,5.0000000000,,35.7280763000,-78.7000405000,29.0000000000,-0.1084205061,-0.3122130036,0.0000000000,0.7900000000,-3.3000000000,-0.1500000000,-0.0433954597,138.0000000000
2026-01-19 15:40:45.138537,24.9990000000,0.0000000000,45.5210000000,4.0000000000,5.0000000000,,35.7280857000,-78.7000873000,29.0000000000,-0.0439168140,-0.1266020685,0.0000000000,1.1500000000,-4.6500000000,-0.2800000000,-0.0544941984,139.0000000000
2026-01-19 15:40:46.141935,25.0030000000,0.0000000000,45.3960000000,4.0000000000,5.0000000000,,35.7280960000,-78.7001396000,29.0000000000,-0.0250325836,-0.0968774706,0.0000000000,1.1300000000,-4.7500000000,0.0700000000,-0.0566261895,140.0000000000
2026-01-19 15:40:47.145501,24.9760000000,0.0000000000,45.5710000000,4.0000000000,5.0000000000,,35.7281056000,-78.7001924000,29.0000000000,-0.0432970934,-0.0960874408,0.0000000000,1.0700000000,-4.7100000000,-0.0700000000,-0.0536533110,141.0000000000
2026-01-19 15:40:48.158962,24.9330000000,0.0000000000,45.5180000000,4.0000000000,5.0000000000,,35.7281158000,-78.7002456000,29.0000000000,-0.0245341621,-0.0459446944,0.0000000000,1.1400000000,-4.7500000000,-0.0400000000,-0.0552212372,142.0000000000
2026-01-19 15:40:49.161993,24.9390000000,0.0000000000,45.5920000000,4.0000000000,5.0000000000,,35.7281253000,-78.7002932000,29.0000000000,0.0130046783,0.0569318309,0.0000000000,0.8600000000,-3.7500000000,-0.1300000000,-0.0549902804,143.0000000000
2026-01-19 15:40:50.165820,24.8450000000,0.0000000000,45.4010000000,4.0000000000,5.0000000000,,35.7281315000,-78.7003270000,29.0000000000,0.0159986168,0.1137209833,0.0000000000,0.5100000000,-2.2500000000,-0.0400000000,-0.0559587292,144.0000000000
2026-01-19 15:40:51.169391,24.8370000000,0.0000000000,45.3650000000,4.0000000000,5.0000000000,,35.7281345000,-78.7003420000,29.0000000000,0.0095600085,0.0779268444,0.0000000000,0.2400000000,-0.5700000000,-0.0900000000,-0.0581150353,145.0000000000
2026-01-19 15:40:52.172199,24.9060000000,0.0000000000,45.3120000000,4.0000000000,5.0000000000,,35.7281355000,-78.7003436000,29.0000000000,-0.0177389942,-0.0230995305,0.0000000000,0.0500000000,0.0600000000,-0.0700000000,-0.0536576547,146.0000000000
2026-01-19 15:40:53.175908,24.9570000000,0.0000000000,45.4260000000,4.0000000000,5.0000000000,,35.7281362000,-78.7003417000,29.0000000000,-0.1584843695,0.0033255555,0.0000000000,0.1800000000,0.1400000000,-0.1000000000,-0.0515605472,147.0000000000
2026-01-19 15:40:54.179465,24.8790000000,0.0000000000,45.0040000000,4.0000000000,5.0000000000,,35.7281480000,-78.7003365000,29.0000000000,-0.3099977970,0.0363719128,0.0000000000,2.5300000000,0.7700000000,0.0500000000,-0.0509505272,148.0000000000
2026-01-19 15:40:55.183039,24.8570000000,0.0000000000,45.2790000000,4.0000000000,5.0000000000,,35.7281819000,-78.7003244000,29.0000000000,-0.1225393787,-0.0032097064,0.0000000000,4.5600000000,1.3100000000,-0.1800000000,-0.0453474298,149.0000000000
2026-01-19 15:40:56.185864,24.9200000000,0.0000000000,45.3400000000,4.0000000000,5.0000000000,,35.7282249000,-78.7003091000,29.0000000000,-0.0591061674,-0.0156179965,0.0000000000,4.8100000000,1.4000000000,-0.0900000000,-0.0463557951,150.0000000000
2026-01-19 15:40:57.188974,24.8860000000,0.0000000000,45.1590000000,4.0000000000,5.0000000000,,35.7282684000,-78.7002936000,29.0000000000,-0.0520599857,-0.0055594407,0.0000000000,4.8500000000,1.4200000000,-0.0500000000,-0.0521148555,151.0000000000
2026-01-19 15:40:58.192631,24.9740000000,0.0000000000,45.4350000000,4.0000000000,5.0000000000,,35.7283115000,-78.7002776000,29.0000000000,0.0100211734,-0.0374983884,0.0000000000,4.5700000000,1.4000000000,-0.1300000000,-0.0528527834,152.0000000000
2026-01-19 15:40:59.196499,24.9580000000,0.0000000000,45.3530000000,4.0000000000,5.0000000000,,35.7283479000,-78.7002631000,29.0000000000,0.0763463229,-0.0621808954,0.0000000000,3.4400000000,1.1500000000,-0.0100000000,-0.0500982478,153.0000000000
2026-01-19 15:41:00.199826,24.9180000000,0.0000000000,45.2070000000,4.0000000000,5.0000000000,,35.7283725000,-78.7002516000,29.0000000000,0.1075516269,-0.0927749276,0.0000000000,2.0300000000,0.8700000000,-0.0300000000,-0.0576774105,154.0000000000
2026-01-19 15:41:01.203433,24.9970000000,0.0000000000,45.2860000000,4.0000000000,5.0000000000,,35.7283831000,-78.7002456000,29.0000000000,0.0611849837,-0.0893336833,0.0000000000,0.4800000000,0.1800000000,-0.0500000000,-0.0471950807,155.0000000000
2026-01-19 15:41:02.207325,25.0470000000,0.0000000000,45.3110000000,4.0000000000,5.0000000000,,35.7283840000,-78.7002454000,29.0000000000,-0.0194314551,-0.0466176383,0.0000000000,-0.0400000000,-0.1200000000,0.0300000000,-0.0409357473,156.0000000000
2026-01-19 15:41:03.210464,25.0030000000,0.0000000000,45.2280000000,4.0000000000,5.0000000000,,35.7283829000,-78.7002475000,29.0000000000,-0.0428032950,0.0056221448,0.0000000000,-0.0300000000,-0.1800000000,0.0200000000,-0.0399213731,157.0000000000
2026-01-19 15:41:04.213406,25.0060000000,0.0000000000,45.1170000000,4.0000000000,5.0000000000,,35.7283815000,-78.7002398000,29.0000000000,0.0574766658,0.2343752235,0.0000000000,-0.3800000000,1.9500000000,0.0400000000,-0.0351230986,158.0000000000
2026-01-19 15:41:05.216257,24.9370000000,0.0000000000,45.1100000000,4.0000000000,5.0000000000,,35.7283749000,-78.7002049000,29.0000000000,0.0470411442,0.1510563642,0.0000000000,-1.0800000000,4.2900000000,-0.0400000000,-0.0373527408,159.0000000000
2026-01-19 15:41:06.219513,24.9450000000,0.0000000000,45.1900000000,4.0000000000,5.0000000000,,35.7283639000,-78.7001531000,29.0000000000,0.0053356821,0.0303981658,0.0000000000,-1.2600000000,4.8500000000,-0.0700000000,-0.0387984924,160.0000000000
2026-01-19 15:41:07.223067,24.9830000000,0.0000000000,45.1670000000,4.0000000000,5.0000000000,,35.7283521000,-78.7000981000,29.0000000000,-0.0071428982,0.0183071420,0.0000000000,-1.3400000000,5.0000000000,-0.0200000000,-0.0391946472,161.0000000000
2026-01-19 15:41:08.226347,25.0190000000,0.0000000000,45.2070000000,4.0000000000,5.0000000000,,35.7283400000,-78.7000423000,29.0000000000,-0.0173810013,0.0100617129,0.0000000000,-1.2800000000,5.0000000000,0.0000000000,-0.0344631895,162.0000000000
2026-01-19 15:41:09.229641,25.0010000000,0.0000000000,45.1650000000,4.0000000000,5.0000000000,,35.7283287000,-78.6999871000,29.0000000000,-0.0237844065,0.0058493782,0.0000000000,-1.1900000000,4.9400000000,0.0000000000,-0.0335507579,163.0000000000
2026-01-19 15:41:10.232617,25.0490000000,0.0000000000,45.1560000000,4.0000000000,5.0000000000,,35.7283183000,-78.6999326000,29.0000000000,-0.0133767091,0.0106470753,0.0000000000,-1.1200000000,4.8800000000,0.0200000000,-0.0361169241,164.0000000000
2026-01-19 15:41:11.236029,25.0450000000,0.0000000000,45.1740000000,4.0000000000,5.0000000000,,35.7283081000,-78.6998790000,29.0000000000,-0.0116194990,0.0138648674,0.0000000000,-1.0900000000,4.8200000000,0.0400000000,-0.0380287506,165.0000000000
2026-01-19 15:41:12.239475,25.0450000000,0.0000000000,45.2130000000,4.0000000000,5.0000000000,,35.7282982000,-78.6998258000,29.0000000000,-0.0064093885,0.0228761826,0.0000000000,-1.0900000000,4.8100000000,0.0300000000,-0.0347062126,166.0000000000
2026-01-19 15:41:13.242514,25.0640000000,0.0000000000,45.2840000000,4.0000000000,5.0000000000,,35.7282882000,-78.6997722000,29.0000000000,-0.0107448259,0.0253288671,0.0000000000,-1.1200000000,4.8500000000,-0.0100000000,-0.0365734436,167.0000000000
2026-01-19 15:41:14.245261,25.0500000000,0.0000000000,45.2130000000,4.0000000000,5.0000000000,,35.7282789000,-78.6997181000,29.0000000000,-0.0025031092,0.0315398946,0.0000000000,-0.9100000000,4.9100000000,0.0700000000,-0.0460591130,168.0000000000
2026-01-19 15:41:15.248263,25.0310000000,0.0000000000,45.1460000000,4.0000000000,5.0000000000,,35.7282696000,-78.6996640000,29.0000000000,0.0433800630,0.0233670399,0.0000000000,-1.3000000000,4.8000000000,0.0400000000,-0.0405272171,169.0000000000
2026-01-19 15:41:16.250994,25.0560000000,0.0000000000,45.2880000000,4.0000000000,5.0000000000,,35.7282568000,-78.6996108000,29.0000000000,-0.0148302782,0.0311882962,0.0000000000,-1.4600000000,4.8100000000,0.0000000000,-0.0345468037,170.0000000000
2026-01-19 15:41:17.254443,25.0100000000,0.0000000000,45.1690000000,4.0000000000,5.0000000000,,35.7282447000,-78.6995570000,29.0000000000,-0.0222187303,0.0334865451,0.0000000000,-1.1800000000,4.9000000000,0.0300000000,-0.0433018357,171.0000000000
2026-01-19 15:41:18.266062,25.0170000000,0.0000000000,45.2190000000,4.0000000000,5.0000000000,,35.7282348000,-78.6995025000,29.0000000000,0.0064138407,0.0254160874,0.0000000000,-1.0700000000,4.9200000000,0.0100000000,-0.0432272181,172.0000000000
2026-01-19 15:41:19.269592,25.0180000000,0.0000000000,45.1890000000,4.0000000000,5.0000000000,,35.7282252000,-78.6994479000,29.0000000000,0.0115188314,0.0239152573,0.0000000000,-1.0700000000,4.8700000000,0.0200000000,-0.0401145965,173.0000000000
2026-01-19 15:41:20.272648,25.0240000000,0.0000000000,45.1470000000,4.0000000000,5.0000000000,,35.7282151000,-78.6993940000,29.0000000000,0.0180747844,0.0280068424,0.0000000000,-1.1800000000,4.8300000000,0.0300000000,-0.0387551151,174.0000000000
2026-01-19 15:41:21.276692,25.0200000000,0.0000000000,45.0080000000,4.0000000000,5.0000000000,,35.7282043000,-78.6993402000,29.0000000000,0.0083005568,0.0279102288,0.0000000000,-1.2100000000,4.8800000000,0.0900000000,-0.0389809832,175.0000000000
2026-01-19 15:41:22.280193,25.0350000000,0.0000000000,45.1190000000,4.0000000000,5.0000000000,,35.7281938000,-78.6992861000,29.0000000000,0.0082357312,0.0193977654,0.0000000000,-1.1700000000,4.8600000000,0.0000000000,-0.0385548882,176.0000000000
2026-01-19 15:41:23.283262,25.0350000000,0.0000000000,45.0130000000,4.0000000000,5.0000000000,,35.7281834000,-78.6992323000,29.0000000000,0.0085125240,0.0224832483,0.0000000000,-1.1300000000,4.8500000000,0.0800000000,-0.0377514958,177.0000000000
2026-01-19 15:41:24.286576,25.0040000000,0.0000000000,45.0210000000,4.0000000000,5.0000000000,,35.7281732000,-78.6991785000,29.0000000000,0.0096945269,0.0191901140,0.0000000000,-1.1400000000,4.8300000000,0.0100000000,-0.0359544642,178.0000000000
2026-01-19 15:41:25.291023,25.0160000000,0.0000000000,45.0600000000,4.0000000000,5.0000000000,,35.7281627000,-78.6991252000,29.0000000000,0.0106261475,0.0255100951,0.0000000000,-1.1800000000,4.8200000000,-0.0100000000,-0.0377995707,179.0000000000
2026-01-19 15:41:26.293765,25.0130000000,0.0000000000,45.0590000000,4.0000000000,5.0000000000,,35.7281523000,-78.6990717000,29.0000000000,0.0094014453,0.0276209209,0.0000000000,-1.1600000000,4.8600000000,0.0000000000,-0.0351659730,180.0000000000
2026-01-19 15:41:27.297349,25.0610000000,0.0000000000,45.1970000000,4.0000000000,5.0000000000,,35.7281418000,-78.6990180000,29.0000000000,0.0055425996,0.0237375274,0.0000000000,-1.1400000000,4.8100000000,0.0000000000,-0.0341763385,181.0000000000
2026-01-19 15:41:28.301546,25.0220000000,0.0000000000,45.0280000000,4.0000000000,5.0000000000,,35.7281317000,-78.6989641000,29.0000000000,0.0076684291,0.0278739482,0.0000000000,-1.0900000000,4.9400000000,0.0900000000,-0.0393761322,182.0000000000
2026-01-19 15:41:29.305534,25.0480000000,0.0000000000,45.1470000000,4.0000000000,5.0000000000,,35.7281216000,-78.6989092000,29.0000000000,0.0271775797,0.0101359598,0.0000000000,-1.1900000000,4.8800000000,-0.0200000000,-0.0346090458,183.0000000000
2026-01-19 15:41:30.308834,25.0290000000,0.0000000000,45.1080000000,4.0000000000,5.0000000000,,35.7281102000,-78.6988558000,29.0000000000,0.0062352000,0.0228129067,0.0000000000,-1.2900000000,4.7900000000,0.0600000000,-0.0362780243,184.0000000000
2026-01-19 15:41:31.312383,25.0020000000,0.0000000000,45.0330000000,4.0000000000,5.0000000000,,35.7280985000,-78.6988026000,29.0000000000,0.0022487240,0.0255554579,0.0000000000,-1.2800000000,4.8100000000,0.0000000000,-0.0397362411,185.0000000000
2026-01-19 15:41:32.316210,25.0170000000,0.0000000000,45.0340000000,4.0000000000,5.0000000000,,35.7280871000,-78.6987490000,29.0000000000,-0.0132635562,0.0323662795,0.0000000000,-1.2100000000,4.8500000000,-0.0200000000,-0.0379274152,186.0000000000
2026-01-19 15:41:33.319138,24.9650000000,0.0000000000,44.8430000000,4.0000000000,5.0000000000,,35.7280767000,-78.6986945000,29.0000000000,-0.0099845799,0.0171152260,0.0000000000,-1.1100000000,4.9800000000,0.0400000000,-0.0386826135,187.0000000000
2026-01-19 15:41:34.322488,24.9420000000,0.0000000000,44.8360000000,4.0000000000,5.0000000000,,35.7280670000,-78.6986394000,29.0000000000,-0.0094531700,-0.0000719242,0.0000000000,-1.0400000000,4.9600000000,-0.0700000000,-0.0404000133,188.0000000000
2026-01-19 15:41:35.325301,25.0240000000,0.0000000000,44.9650000000,4.0000000000,5.0000000000,,35.7280578000,-78.6985855000,29.0000000000,0.0058849929,0.0039146077,0.0000000000,-1.0100000000,4.8300000000,-0.0400000000,-0.0362297632,189.0000000000
2026-01-19 15:41:36.328341,25.0170000000,0.0000000000,44.9060000000,4.0000000000,5.0000000000,,35.7280482000,-78.6985328000,29.0000000000,-0.0006531170,-0.0359038450,0.0000000000,-1.1100000000,4.6900000000,0.0200000000,-0.0361353084,190.0000000000
2026-01-19 15:41:37.331575,25.0260000000,0.0000000000,44.9050000000,4.0000000000,5.0000000000,,35.7280387000,-78.6984857000,29.0000000000,-0.0361384824,-0.1223991662,0.0000000000,-0.9500000000,3.7000000000,0.0000000000,-0.0357442535,191.0000000000
2026-01-19 15:41:38.334914,25.0260000000,0.0000000000,44.9130000000,4.0000000000,5.0000000000,,35.7280314000,-78.6984521000,29.0000000000,-0.0508038476,-0.1637457609,0.0000000000,-0.6100000000,2.3600000000,0.0100000000,-0.0362364873,192.0000000000
2026-01-19 15:41:39.338679,25.0340000000,0.0000000000,44.9580000000,4.0000000000,5.0000000000,,35.7280275000,-78.6984354000,29.0000000000,-0.0554935187,-0.1617012769,0.0000000000,-0.1500000000,0.7500000000,0.0000000000,-0.0385102592,193.0000000000
2026-01-19 15:41:40.342340,25.0470000000,0.0000000000,44.9990000000,4.0000000000,5.0000000000,,35.7280271000,-78.6984329000,29.0000000000,-0.0194496587,-0.0710508078,0.0000000000,0.0800000000,-0.0400000000,0.0000000000,-0.0481363423,194.0000000000
2026-01-19 15:41:41.345964,25.0490000000,0.0000000000,45.0680000000,4.0000000000,5.0000000000,,35.7280279000,-78.6984344000,29.0000000000,0.0040492071,-0.0059682392,0.0000000000,0.1200000000,-0.1000000000,0.0100000000,-0.0461176671,195.0000000000
2026-01-19 15:41:42.349657,25.0370000000,0.0000000000,44.9550000000,4.0000000000,5.0000000000,,35.7280275000,-78.6984265000,29.0000000000,0.0824699476,0.2278236002,0.0000000000,-0.3800000000,1.9500000000,0.1000000000,-0.0323711559,196.0000000000
2026-01-19 15:41:43.353443,25.0030000000,0.0000000000,44.8720000000,4.0000000000,5.0000000000,,35.7280215000,-78.6983922000,29.0000000000,0.0606875382,0.1441112161,0.0000000000,-1.0000000000,4.1700000000,0.0200000000,-0.0346023515,197.0000000000
2026-01-19 15:41:44.356566,25.1040000000,0.0000000000,45.0060000000,4.0000000000,5.0000000000,,35.7280116000,-78.6983420000,29.0000000000,0.0220763832,0.0347902030,0.0000000000,-1.2300000000,4.7200000000,0.0400000000,-0.0348747820,198.0000000000
2026-01-19 15:41:45.365189,25.0860000000,0.0000000000,44.9950000000,4.0000000000,5.0000000000,,35.7280003000,-78.6982888000,29.0000000000,0.0101591060,0.0297946110,0.0000000000,-1.3000000000,4.8700000000,0.0700000000,-0.0362188406,199.0000000000
2026-01-19 15:41:46.368265,25.0720000000,0.0000000000,44.9700000000,4.0000000000,5.0000000000,,35.7279887000,-78.6982341000,29.0000000000,0.0096937576,0.0255464129,0.0000000000,-1.3100000000,4.9800000000,0.0800000000,-0.0364504606,200.0000000000
2026-01-19 15:41:47.371864,25.0220000000,0.0000000000,44.9180000000,4.0000000000,5.0000000000,,35.7279769000,-78.6981787000,29.0000000000,-0.0007585892,0.0205655769,0.0000000000,-1.2800000000,5.0400000000,0.0700000000,-0.0383389518,201.0000000000
2026-01-19 15:41:48.375677,24.9930000000,0.0000000000,44.9610000000,4.0000000000,5.0000000000,,35.7279655000,-78.6981232000,29.0000000000,-0.0030404991,0.0111619812,0.0000000000,-1.2200000000,5.0000000000,-0.0200000000,-0.0363215916,202.0000000000
2026-01-19 15:41:49.379193,24.9790000000,0.0000000000,44.9670000000,4.0000000000,5.0000000000,,35.7279549000,-78.6980684000,29.0000000000,-0.0019730646,0.0112399049,0.0000000000,-1.1300000000,4.9300000000,-0.0100000000,-0.0370904803,203.0000000000
2026-01-19 15:41:50.382861,24.9730000000,0.0000000000,44.9570000000,4.0000000000,5.0000000000,,35.7279448000,-78.6980145000,29.0000000000,0.0040072864,0.0135447877,0.0000000000,-1.1100000000,4.8800000000,-0.0200000000,-0.0364393294,204.0000000000
2026-01-19 15:41:51.386463,25.0060000000,0.0000000000,44.9610000000,4.0000000000,5.0000000000,,35.7279349000,-78.6979606000,29.0000000000,0.0142254727,0.0143445544,0.0000000000,-1.0900000000,4.8800000000,0.0100000000,-0.0384732634,205.0000000000
2026-01-19 15:41:52.389956,25.0100000000,0.0000000000,44.9060000000,4.0000000000,5.0000000000,,35.7279248000,-78.6979068000,29.0000000000,0.0146181351,0.0084952395,0.0000000000,-1.1700000000,4.8500000000,0.0000000000,-0.0363719650,206.0000000000
2026-01-19 15:41:53.393510,25.0070000000,0.0000000000,44.8840000000,4.0000000000,5.0000000000,,35.7279139000,-78.6978534000,29.0000000000,0.0047384417,0.0108004510,0.0000000000,-1.2300000000,4.8400000000,0.0000000000,-0.0369368270,207.0000000000
2026-01-19 15:41:54.396397,25.0220000000,0.0000000000,44.8980000000,4.0000000000,5.0000000000,,35.7279029000,-78.6977998000,29.0000000000,-0.0004779361,0.0147998156,0.0000000000,-1.1900000000,4.8600000000,0.0200000000,-0.0370757543,208.0000000000
2026-01-19 15:41:55.399518,25.0250000000,0.0000000000,44.8740000000,4.0000000000,5.0000000000,,35.7278922000,-78.6977459000,29.0000000000,0.0035618199,0.0100956056,0.0000000000,-1.1700000000,4.8500000000,0.0200000000,-0.0374935009,209.0000000000
2026-01-19 15:41:56.402614,25.0290000000,0.0000000000,44.9030000000,4.0000000000,5.0000000000,,35.7278818000,-78.6976920000,29.0000000000,0.0061275633,0.0077784006,0.0000000000,-1.1500000000,4.8500000000,0.0100000000,-0.0381352752,210.0000000000
2026-01-19 15:41:57.405796,25.0100000000,0.0000000000,44.8770000000,4.0000000000,5.0000000000,,35.7278715000,-78.6976382000,29.0000000000,0.0067443913,0.0091920774,0.0000000000,-1.1400000000,4.8500000000,0.0200000000,-0.0390781611,211.0000000000
2026-01-19 15:41:58.409367,24.9850000000,0.0000000000,44.8890000000,4.0000000000,5.0000000000,,35.7278611000,-78.6975844000,29.0000000000,0.0084799146,0.0054137185,0.0000000000,-1.1500000000,4.8400000000,0.0000000000,-0.0389318019,212.0000000000
2026-01-19 15:41:59.412828,24.9800000000,0.0000000000,44.8840000000,4.0000000000,5.0000000000,,35.7278505000,-78.6975307000,29.0000000000,0.0089381179,0.0071500111,0.0000000000,-1.2000000000,4.8400000000,-0.0200000000,-0.0373174623,213.0000000000
2026-01-19 15:42:00.415852,24.9710000000,0.0000000000,44.8600000000,4.0000000000,5.0000000000,,35.7278397000,-78.6974769000,29.0000000000,0.0051655201,0.0064902436,0.0000000000,-1.2200000000,4.8500000000,0.0000000000,-0.0390940458,214.0000000000
2026-01-19 15:42:01.419543,24.9930000000,0.0000000000,44.8610000000,4.0000000000,5.0000000000,,35.7278288000,-78.6974233000,29.0000000000,0.0010826895,0.0056465566,0.0000000000,-1.2100000000,4.8600000000,-0.0100000000,-0.0381614342,215.0000000000
2026-01-19 15:42:02.422725,25.0030000000,0.0000000000,44.8510000000,4.0000000000,5.0000000000,,35.7278181000,-78.6973696000,29.0000000000,-0.0016004611,0.0049448982,0.0000000000,-1.1800000000,4.8600000000,0.0100000000,-0.0375115462,216.0000000000
2026-01-19 15:42:03.425570,25.0110000000,0.0000000000,44.8530000000,4.0000000000,5.0000000000,,35.7278050000,-78.6973026000,29.0000000000,-0.0005692346,0.0069785025,0.0000000000,-1.1600000000,4.8700000000,0.0000000000,-0.0372413099,217.0000000000
2026-01-19 15:42:04.428973,25.0390000000,0.0000000000,44.8700000000,4.0000000000,5.0000000000,,35.7277947000,-78.6972490000,29.0000000000,0.0030769184,0.0077024326,0.0000000000,-1.1700000000,4.8500000000,0.0100000000,-0.0382617526,218.0000000000
2026-01-19 15:42:05.432323,25.0200000000,0.0000000000,44.8450000000,4.0000000000,5.0000000000,,35.7277843000,-78.6971949000,29.0000000000,0.0016590459,0.0018061306,0.0000000000,-1.1700000000,4.8800000000,0.0500000000,-0.0379428640,219.0000000000
2026-01-19 15:42:06.435368,25.0220000000,0.0000000000,44.8450000000,4.0000000000,5.0000000000,,35.7277736000,-78.6971409000,29.0000000000,0.0020811744,0.0011704229,0.0000000000,-1.1900000000,4.8600000000,0.0000000000,-0.0370979607,220.0000000000
2026-01-19 15:42:07.438861,25.0070000000,0.0000000000,44.8420000000,4.0000000000,5.0000000000,,35.7277631000,-78.6970874000,29.0000000000,0.0006186785,0.0035015307,0.0000000000,-1.2000000000,4.8400000000,0.0000000000,-0.0379020087,221.0000000000
2026-01-19 15:42:08.443267,25.0300000000,0.0000000000,44.8630000000,4.0000000000,5.0000000000,,35.7277525000,-78.6970337000,29.0000000000,-0.0003370950,0.0025616549,0.0000000000,-1.2000000000,4.8500000000,0.0000000000,-0.0371501334,222.0000000000
2026-01-19 15:42:09.446378,24.9950000000,0.0000000000,44.8000000000,4.0000000000,5.0000000000,,35.7277417000,-78.6969800000,29.0000000000,-0.0038107987,0.0036605094,0.0000000000,-1.1800000000,4.8400000000,0.0300000000,-0.0354259238,223.0000000000
2026-01-19 15:42:10.449112,24.9890000000,0.0000000000,44.8120000000,4.0000000000,5.0000000000,,35.7277313000,-78.6969264000,29.0000000000,0.0005698502,0.0058712270,0.0000000000,-1.1500000000,4.8700000000,-0.0100000000,-0.0374386087,224.0000000000
2026-01-19 15:42:11.452075,25.0140000000,0.0000000000,44.8200000000,4.0000000000,5.0000000000,,35.7277209000,-78.6968726000,29.0000000000,0.0035299230,0.0027346443,0.0000000000,-1.1700000000,4.8700000000,0.0000000000,-0.0380603075,225.0000000000
2026-01-19 15:42:12.455678,24.9900000000,0.0000000000,44.7590000000,4.0000000000,5.0000000000,,35.7277103000,-78.6968188000,29.0000000000,0.0023155836,0.0037112720,0.0000000000,-1.2100000000,4.8700000000,0.0000000000,-0.0388566926,226.0000000000
2026-01-19 15:42:13.458876,25.0090000000,0.0000000000,44.7390000000,4.0000000000,5.0000000000,,35.7276994000,-78.6967651000,29.0000000000,-0.0064308564,0.0049626827,0.0000000000,-1.2200000000,4.8700000000,0.0000000000,-0.0371470489,227.0000000000
2026-01-19 15:42:14.462689,25.0170000000,0.0000000000,44.7780000000,4.0000000000,5.0000000000,,35.7276888000,-78.6967119000,29.0000000000,-0.0281132199,-0.0899371505,0.0000000000,-1.1200000000,4.6000000000,0.0000000000,-0.0377561562,228.0000000000
2026-01-19 15:42:15.466422,25.0500000000,0.0000000000,44.7550000000,4.0000000000,5.0000000000,,35.7276801000,-78.6966675000,29.0000000000,-0.0455473065,-0.1526238173,0.0000000000,-0.8000000000,3.3600000000,0.0400000000,-0.0388886072,229.0000000000
2026-01-19 15:42:16.470137,25.0180000000,0.0000000000,44.6390000000,4.0000000000,5.0000000000,,35.7276746000,-78.6966388000,29.0000000000,-0.0566231683,-0.2047925293,0.0000000000,-0.4100000000,1.7700000000,0.0400000000,-0.0351740718,230.0000000000
2026-01-19 15:42:17.473949,25.0230000000,0.0000000000,44.7330000000,4.0000000000,5.0000000000,,35.7276726000,-78.6966286000,29.0000000000,-0.0442998782,-0.1314474642,0.0000000000,-0.0700000000,0.2200000000,-0.0500000000,-0.0395346247,231.0000000000
2026-01-19 15:42:18.477932,25.0800000000,0.0000000000,44.8440000000,4.0000000000,5.0000000000,,35.7276729000,-78.6966290000,29.0000000000,-0.0137911625,-0.0514800735,0.0000000000,0.0700000000,-0.1700000000,0.0200000000,-0.0435048565,232.0000000000
2026-01-19 15:42:19.481047,25.0680000000,0.0000000000,44.8360000000,4.0000000000,5.0000000000,,35.7276735000,-78.6966310000,29.0000000000,0.1406588405,-0.0816498399,0.0000000000,-0.1100000000,-0.1800000000,0.0800000000,-0.0566584058,233.0000000000
2026-01-19 15:42:20.484429,24.9950000000,0.0000000000,44.4980000000,4.0000000000,5.0000000000,,35.7276616000,-78.6966364000,29.0000000000,0.2662000358,-0.1564595848,0.0000000000,-2.6600000000,-0.8700000000,0.1100000000,-0.0733771175,234.0000000000
2026-01-19 15:42:21.487855,25.1620000000,0.0000000000,44.9720000000,4.0000000000,5.0000000000,,35.7276271000,-78.6966500000,29.0000000000,0.1119522005,-0.1114079952,0.0000000000,-4.5800000000,-1.4500000000,-0.0800000000,-0.0438105352,235.0000000000
2026-01-19 15:42:22.490425,25.1380000000,0.0000000000,45.1410000000,4.0000000000,5.0000000000,,35.7275848000,-78.6966671000,29.0000000000,0.0558170639,-0.0744058490,0.0000000000,-4.7100000000,-1.5700000000,0.0900000000,-0.0346408077,236.0000000000
2026-01-19 15:42:23.493503,24.8840000000,0.0000000000,44.8770000000,4.0000000000,5.0000000000,,35.7275417000,-78.6966851000,29.0000000000,0.0569190942,-0.0667033195,0.0000000000,-4.8200000000,-1.6300000000,0.0100000000,-0.0429847464,237.0000000000
2026-01-19 15:42:24.497606,24.9920000000,0.0000000000,45.0940000000,4.0000000000,5.0000000000,,35.7274990000,-78.6967021000,29.0000000000,-0.0765991360,-0.0243892334,0.0000000000,-4.3300000000,-1.3700000000,-0.1200000000,-0.0350210965,238.0000000000
2026-01-19 15:42:25.501108,25.0430000000,0.0000000000,45.0750000000,4.0000000000,5.0000000000,,35.7274654000,-78.6967150000,29.0000000000,-0.1360697299,-0.0015208088,0.0000000000,-2.9900000000,-0.9200000000,0.0100000000,-0.0331213363,239.0000000000
2026-01-19 15:42:26.504737,25.0110000000,0.0000000000,44.9400000000,4.0000000000,5.0000000000,,35.7274459000,-78.6967219000,29.0000000000,-0.1675506532,0.0140787149,0.0000000000,-1.3000000000,-0.3800000000,0.0500000000,-0.0371619910,240.0000000000
2026-01-19 15:42:27.508508,24.9550000000,0.0000000000,44.8470000000,4.0000000000,5.0000000000,,35.7274403000,-78.6967233000,29.0000000000,-0.0890409499,-0.0288940296,0.0000000000,-0.1000000000,-0.0200000000,0.0500000000,-0.0399712324,241.0000000000
2026-01-19 15:42:28.511512,24.9960000000,0.0000000000,44.9190000000,4.0000000000,5.0000000000,,35.7274415000,-78.6967235000,29.0000000000,-0.0273486525,-0.0504001342,0.0000000000,0.2500000000,-0.0600000000,-0.0500000000,-0.0345768370,242.0000000000
2026-01-19 15:42:29.514421,25.0280000000,0.0000000000,44.8390000000,4.0000000000,5.0000000000,,35.7274440000,-78.6967231000,29.0000000000,-0.0045035295,0.2591519654,0.0000000000,0.2400000000,0.6700000000,0.0300000000,-0.0335639417,243.0000000000
2026-01-19 15:42:30.518127,24.9810000000,0.0000000000,44.6850000000,4.0000000000,5.0000000000,,35.7274466000,-78.6967003000,29.0000000000,-0.0289294198,0.2450300306,0.0000000000,0.3300000000,3.4000000000,0.0400000000,-0.0385820270,244.0000000000
2026-01-19 15:42:31.521667,24.9200000000,0.0000000000,44.7240000000,4.0000000000,5.0000000000,,35.7274501000,-78.6966519000,29.0000000000,-0.0184532683,0.0512639023,0.0000000000,0.4000000000,4.8900000000,-0.0800000000,-0.0359284021,245.0000000000
2026-01-19 15:42:32.524815,24.8930000000,0.0000000000,44.7250000000,4.0000000000,5.0000000000,,35.7274536000,-78.6965959000,29.0000000000,-0.0198587142,0.0154925762,0.0000000000,0.4200000000,5.1000000000,-0.0900000000,-0.0342919976,246.0000000000
2026-01-19 15:42:33.527472,24.9040000000,0.0000000000,44.7280000000,4.0000000000,5.0000000000,,35.7274572000,-78.6965389000,29.0000000000,-0.0199136399,0.0089605004,0.0000000000,0.3900000000,5.1500000000,-0.0900000000,-0.0353521481,247.0000000000
2026-01-19 15:42:34.530789,24.9370000000,0.0000000000,44.7370000000,4.0000000000,5.0000000000,,35.7274606000,-78.6964818000,29.0000000000,-0.0196163561,0.0000244509,0.0000000000,0.3800000000,5.1300000000,-0.0700000000,-0.0352001078,248.0000000000
2026-01-19 15:42:35.534377,24.9480000000,0.0000000000,44.7420000000,4.0000000000,5.0000000000,,35.7274641000,-78.6964253000,29.0000000000,-0.0200959835,-0.0032234956,0.0000000000,0.3700000000,5.0500000000,-0.0500000000,-0.0344385430,249.0000000000
2026-01-19 15:42:36.537451,24.9920000000,0.0000000000,44.7520000000,4.0000000000,5.0000000000,,35.7274674000,-78.6963698000,29.0000000000,-0.0223601274,-0.0000176001,0.0000000000,0.3600000000,4.9700000000,-0.0400000000,-0.0348864347,250.0000000000
2026-01-19 15:42:37.540297,25.0050000000,0.0000000000,44.7100000000,4.0000000000,5.0000000000,,35.7274706000,-78.6963168000,29.0000000000,-0.0191678889,-0.1176869720,0.0000000000,0.3500000000,4.4000000000,0.0100000000,-0.0400678702,251.0000000000
2026-01-19 15:42:38.543914,25.0070000000,5.4528828215,44.6860000000,4.0000000000,5.0000000000,,35.7274734000,-78.6962753000,29.0000000000,-0.0186815914,-0.1603928506,664.8170541456,0.2400000000,3.0300000000,0.0100000000,-0.0415877849,252.0000000000
2026-01-19 15:42:39.547519,24.9010000000,6.0355550174,44.9930000000,4.0000000000,5.0000000000,,35.7274754000,-78.6962514000,29.0000000000,-0.0091033261,-0.2799619436,736.4529252172,0.0800000000,1.0900000000,0.5200000000,-0.0401755422,253.0000000000
2026-01-19 15:42:40.550956,23.8550000000,3.8910288437,45.0180000000,4.0000000000,5.0000000000,,35.7274764000,-78.6962463000,29.0000000000,0.0025105812,-0.0662048906,475.3428638355,0.0400000000,0.1200000000,1.6500000000,-0.0437907241,254.0000000000
2026-01-19 15:42:41.580815,22.2070000000,5.3182674855,44.8140000000,4.0000000000,5.0000000000,,35.7274759000,-78.6962461000,29.0000000000,-0.0213357620,-0.0493659414,648.8019983462,-0.1400000000,-0.0500000000,1.6400000000,-0.0547212213,255.0000000000
2026-01-19 15:42:42.583973,20.7590000000,5.2019982022,44.9080000000,4.0000000000,5.0000000000,,35.7274749000,-78.6962476000,29.0000000000,-0.0327539854,-0.0483202450,635.1393153837,-0.0600000000,-0.2000000000,1.5200000000,-0.0500112548,256.0000000000
2026-01-19 15:42:43.587199,19.2310000000,3.5603384210,44.8910000000,4.0000000000,5.0000000000,,35.7274744000,-78.6962501000,29.0000000000,-0.0192734264,-0.0289995559,434.6839511192,-0.0100000000,-0.2000000000,1.5900000000,-0.0514598005,257.0000000000
2026-01-19 15:42:44.590418,17.7140000000,4.4681270812,44.9450000000,4.0000000000,5.0000000000,,35.7274740000,-78.6962521000,29.0000000000,-0.0318983570,-0.0246235467,544.9203344395,0.0000000000,-0.1300000000,1.4700000000,-0.0496207923,258.0000000000
2026-01-19 15:42:45.594506,16.2420000000,3.3142191942,44.8990000000,4.0000000000,5.0000000000,,35.7274740000,-78.6962528000,29.0000000000,-0.0274316892,-0.0236326940,404.9216805752,0.0700000000,-0.0200000000,1.5800000000,-0.0495470054,259.0000000000
2026-01-19 15:42:46.598714,14.6940000000,3.9131751699,44.8770000000,4.0000000000,5.0000000000,,35.7274746000,-78.6962528000,29.0000000000,-0.0262106620,-0.0282056108,477.2322066102,0.0700000000,0.0400000000,1.5500000000,-0.0475991294,260.0000000000
2026-01-19 15:42:47.602978,13.1670000000,3.8421066679,44.8600000000,4.0000000000,5.0000000000,,35.7274754000,-78.6962520000,29.0000000000,-0.0190187283,-0.0323348902,469.9935544386,0.0500000000,0.0800000000,1.5100000000,-0.0456411168,261.0000000000
2026-01-19 15:42:48.606905,11.6480000000,5.5150844108,44.8650000000,4.0000000000,5.0000000000,,35.7274758000,-78.6962511000,29.0000000000,-0.0174015127,-0.0347268395,673.5592851873,0.0300000000,0.0600000000,1.4700000000,-0.0464958921,262.0000000000
2026-01-19 15:42:49.610981,10.4310000000,5.7341165571,44.4550000000,4.0000000000,5.0000000000,,35.7274762000,-78.6962507000,29.0000000000,-0.0289894640,-0.0512420870,699.1575972397,0.0400000000,0.0000000000,0.7100000000,-0.0427579954,263.0000000000
