time,num,Longitude,Latitude,Altitude,Pitch,Yaw,Roll,VelocityX,VelocityY,VelocityZ,BatteryVolts,GPSFix,NumberOfSatellites,ID,Interval(sec),Transfer(MBytes),Bandwidth(MBits/sec)
2026-01-29 13:43:17.765007,21.0000000000,-78.6962747000,35.7273023000,-0.0170000000,0.0010306370,0.0231410861,0.0012194997,-0.0100000000,0.0100000000,0.0000000000,12.5870000000,6.0000000000,10.0000000000,5.0000000000,,2.4915725224,4.3671181869
2026-01-29 13:43:18.771466,22.0000000000,-78.6962747000,35.7273023000,-0.0170000000,0.0010339121,0.0231369101,0.0012244338,-0.0100000000,0.0100000000,0.0000000000,12.5870000000,6.0000000000,10.0000000000,5.0000000000,,2.5294887975,4.8796907647
2026-01-29 13:43:19.774112,23.0000000000,-78.6962747000,35.7273023000,-0.0170000000,0.0010093753,0.0231187809,0.0012102856,-0.0100000000,0.0100000000,0.0000000000,12.5870000000,6.0000000000,10.0000000000,5.0000000000,,2.4329518093,4.5771810378
2026-01-29 13:43:20.775215,24.0000000000,-78.6962747000,35.7273023000,-0.0170000000,0.0010072786,0.0231001731,0.0012126884,-0.0100000000,0.0100000000,0.0000000000,12.5870000000,6.0000000000,10.0000000000,5.0000000000,,2.4363182701,5.4841372543
2026-01-29 13:43:22.747673,25.0000000000,-78.6962747000,35.7273023000,0.0020000000,0.0011364593,0.0230701473,0.0013646358,0.0000000000,0.0000000000,0.0000000000,12.5870000000,6.0000000000,10.0000000000,5.0000000000,,2.1901176020,6.6439577984
2026-01-29 13:43:23.749142,26.0000000000,-78.6962747000,35.7273023000,0.0020000000,0.0014076454,0.0230703726,0.0016273325,0.0000000000,0.0000000000,0.0000000000,12.5870000000,6.0000000000,10.0000000000,5.0000000000,,2.0947013126,5.2863406375
2026-01-29 13:43:24.755227,27.0000000000,-78.6962747000,35.7273023000,0.0020000000,0.0017069887,0.0230940823,0.0019235222,0.0000000000,0.0000000000,0.0000000000,12.5870000000,6.0000000000,10.0000000000,5.0000000000,,2.6469908484,4.0882269937
2026-01-29 13:43:25.760776,28.0000000000,-78.6962747000,35.7273023000,0.0020000000,0.0020307065,0.0231291763,0.0022485869,0.0000000000,0.0000000000,0.0000000000,12.5870000000,6.0000000000,10.0000000000,5.0000000000,,2.7028601713,4.3300401980
2026-01-29 13:43:26.766608,29.0000000000,-78.6962747000,35.7273023000,0.0020000000,0.0023656324,0.0231974218,0.0025636195,0.0000000000,0.0000000000,0.0000000000,12.5870000000,6.0000000000,10.0000000000,5.0000000000,,2.6472281122,3.7809282595
2026-01-29 13:43:27.768335,30.0000000000,-78.6962747000,35.7273023000,0.4330000000,-0.0024860685,0.0231693033,-0.0024742975,0.0000000000,0.0000000000,-1.2400000000,12.5870000000,6.0000000000,10.0000000000,5.0000000000,,2.8771456241,4.6278956653
2026-01-29 13:43:28.774390,31.0000000000,-78.6962749000,35.7273024000,2.0760000000,0.0030764623,0.0227865390,0.0034247662,0.0000000000,0.0000000000,-1.9700000000,12.5870000000,6.0000000000,10.0000000000,5.0000000000,,2.7799163307,6.2646076667
2026-01-29 13:43:29.781717,32.0000000000,-78.6962750000,35.7273025000,4.4940000000,0.0039392067,0.0047771335,0.0043280204,-0.0100000000,0.0100000000,-2.5100000000,12.5870000000,6.0000000000,10.0000000000,5.0000000000,,1.9552201220,5.9457631230
2026-01-29 13:43:30.782751,33.0000000000,-78.6962750000,35.7273025000,7.0390000000,0.0037742034,0.0043765507,0.0036775931,-0.0100000000,0.0200000000,-2.4100000000,12.5870000000,6.0000000000,10.0000000000,5.0000000000,,2.7327105178,5.1532543183
2026-01-29 13:43:31.784517,34.0000000000,-78.6962750000,35.7273025000,9.5230000000,0.0039924877,0.0044784830,0.0042032003,-0.0200000000,0.0200000000,-2.4100000000,12.5870000000,6.0000000000,10.0000000000,5.0000000000,,4.4314176702,3.2560823550
2026-01-29 13:43:32.786387,35.0000000000,-78.6962750000,35.7273025000,12.0000000000,0.0035005077,0.0047206273,0.0030997046,-0.0200000000,0.0200000000,-2.4400000000,12.5870000000,6.0000000000,10.0000000000,5.0000000000,,4.3672074964,2.3699424826
2026-01-29 13:43:33.789662,36.0000000000,-78.6962749000,35.7273025000,14.4960000000,0.0032130789,0.0043186406,0.0026075440,-0.0100000000,0.0100000000,-2.4500000000,12.5870000000,6.0000000000,10.0000000000,5.0000000000,,4.8443559447,3.3000333105
2026-01-29 13:43:34.803182,37.0000000000,-78.6962748000,35.7273025000,16.9950000000,0.0026820160,0.0045680706,0.0022745237,-0.0100000000,0.0000000000,-2.4500000000,12.5870000000,6.0000000000,10.0000000000,5.0000000000,,4.5740071143,4.3541228991
2026-01-29 13:43:35.810862,38.0000000000,-78.6962748000,35.7273025000,19.4880000000,0.0028295666,0.0044090622,0.0034409140,0.0000000000,0.0000000000,-2.4000000000,12.5870000000,6.0000000000,10.0000000000,5.0000000000,,3.1168553593,5.1966623079
2026-01-29 13:43:36.814206,39.0000000000,-78.6962748000,35.7273025000,21.7090000000,0.0035258501,0.0044334624,0.0043588495,-0.0100000000,0.0000000000,-1.8800000000,12.5870000000,6.0000000000,10.0000000000,5.0000000000,,2.6838653102,4.6717445812
2026-01-29 13:43:37.816370,40.0000000000,-78.6962749000,35.7273025000,23.3490000000,0.0031397217,0.0045180805,0.0042570988,-0.0100000000,0.0100000000,-1.3500000000,12.5870000000,6.0000000000,10.0000000000,5.0000000000,,2.9021811247,4.5850299431
2026-01-29 13:43:38.818932,41.0000000000,-78.6962749000,35.7273025000,24.4520000000,0.0033757328,0.0044624489,0.0037176306,-0.0100000000,0.0100000000,-0.8200000000,12.5870000000,6.0000000000,10.0000000000,5.0000000000,,3.0224257046,4.1203034503
2026-01-29 13:43:40.462998,42.0000000000,-78.6962749000,35.7273025000,25.0080000000,0.0035875798,0.0047844704,0.0037382201,-0.0100000000,0.0100000000,0.0400000000,12.5870000000,6.0000000000,10.0000000000,5.0000000000,,3.5866994491,2.7731057122
2026-01-29 13:43:41.747256,43.0000000000,-78.6962749000,35.7273025000,24.9530000000,0.0034342210,0.0044227079,0.0034546496,-0.0100000000,0.0100000000,-0.0400000000,12.5870000000,6.0000000000,10.0000000000,5.0000000000,,4.7594578023,3.4193408957
2026-01-29 13:43:42.748821,44.0000000000,-78.6962749000,35.7273025000,24.9580000000,0.0029912738,0.0046113441,0.0035638693,-0.0100000000,0.0100000000,-0.0400000000,12.5870000000,6.0000000000,10.0000000000,5.0000000000,,3.8100011237,5.0724272551
2026-01-29 13:43:43.749917,45.0000000000,-78.6962752000,35.7273025000,24.9580000000,-0.0676240698,0.0113626542,-0.1792099029,0.1000000000,-0.2700000000,-0.0100000000,12.5870000000,6.0000000000,10.0000000000,5.0000000000,,2.8541960551,6.8285027744
2026-01-29 13:43:44.755251,46.0000000000,-78.6962912000,35.7273076000,24.9510000000,-0.1169527918,0.0195694454,-0.3078929484,1.0400000000,-2.6300000000,-0.0200000000,12.5870000000,6.0000000000,10.0000000000,5.0000000000,,2.7847526312,6.9072732122
2026-01-29 13:43:45.761679,47.0000000000,-78.6963307000,35.7273203000,24.9590000000,-0.0773648471,0.0128142219,-0.2286381572,1.7100000000,-4.2400000000,-0.0300000000,12.5870000000,6.0000000000,10.0000000000,5.0000000000,,2.7223904991,5.3845100399
2026-01-29 13:43:46.768295,48.0000000000,-78.6963802000,35.7273365000,24.9610000000,-0.0581067204,0.0093411794,-0.2002494484,1.8300000000,-4.5600000000,-0.0200000000,12.5870000000,6.0000000000,10.0000000000,5.0000000000,,2.7136088272,5.4663154789
2026-01-29 13:43:47.769765,49.0000000000,-78.6964319000,35.7273532000,24.9670000000,-0.0577817895,0.0063471724,-0.2021235079,1.8500000000,-4.6900000000,-0.0200000000,12.5870000000,6.0000000000,10.0000000000,5.0000000000,,2.7800000000,6.0023226995
2026-01-29 13:43:48.771494,50.0000000000,-78.6964846000,35.7273701000,24.9780000000,-0.0550708771,0.0074316636,-0.1930185407,1.8500000000,-4.7400000000,-0.0100000000,12.5870000000,6.0000000000,10.0000000000,5.0000000000,,2.6626061271,6.2268173406
2026-01-29 13:43:50.747584,51.0000000000,-78.6965895000,35.7274036000,24.9950000000,-0.0544508137,0.0074030384,-0.1867191494,1.8300000000,-4.6800000000,0.0000000000,12.5870000000,6.0000000000,10.0000000000,5.0000000000,,2.0996438737,6.3200469985
2026-01-29 13:43:51.753793,52.0000000000,-78.6966407000,35.7274199000,25.0020000000,-0.0239641722,0.0021677606,-0.1071799248,1.7500000000,-4.4700000000,0.0000000000,12.5870000000,6.0000000000,10.0000000000,5.0000000000,,1.9629691884,6.9953174415
2026-01-29 13:43:52.755098,53.0000000000,-78.6966848000,35.7274340000,25.0040000000,0.0135449246,0.0003928337,0.0017523657,1.3300000000,-3.4300000000,0.0000000000,12.5870000000,6.0000000000,10.0000000000,5.0000000000,,1.6903264654,10.6140689569
2026-01-29 13:43:53.761269,54.0000000000,-78.6967153000,35.7274437000,25.0060000000,0.0486280359,0.0021389183,0.1110590771,0.7600000000,-1.9900000000,0.0000000000,12.5870000000,6.0000000000,10.0000000000,5.0000000000,,1.8364488347,10.2197118383
2026-01-29 13:43:54.766867,55.0000000000,-78.6967283000,35.7274477000,25.0080000000,0.0394756570,0.0016655572,0.1029169410,0.1600000000,-0.4400000000,0.0000000000,12.5870000000,6.0000000000,10.0000000000,5.0000000000,,1.8836032492,6.9805598306
2026-01-29 13:43:55.773560,56.0000000000,-78.6967290000,35.7274479000,25.0030000000,0.0089405058,-0.0008007261,0.0246723033,-0.0400000000,0.1400000000,0.0000000000,12.5870000000,6.0000000000,10.0000000000,5.0000000000,,1.6386785067,7.1663219894
2026-01-29 13:43:56.774866,57.0000000000,-78.6967270000,35.7274474000,25.0000000000,-0.0447178297,0.0039186887,-0.1912580580,0.0200000000,-0.1500000000,0.0000000000,12.5870000000,6.0000000000,10.0000000000,5.0000000000,,1.8990259263,6.6932070193
2026-01-29 13:43:57.776361,58.0000000000,-78.6967415000,35.7274499000,25.0040000000,-0.0732024536,0.0106530283,-0.3264488578,0.6100000000,-2.6300000000,0.0000000000,12.5870000000,6.0000000000,10.0000000000,5.0000000000,,2.0001633277,6.8420404960
2026-01-29 13:43:58.777546,59.0000000000,-78.6967864000,35.7274583000,25.0310000000,-0.0480991751,0.0028939222,-0.2437386066,1.0700000000,-4.4900000000,-0.0600000000,12.5870000000,6.0000000000,10.0000000000,5.0000000000,,2.0992203153,8.0003802396
2026-01-29 13:43:59.782842,60.0000000000,-78.6968383000,35.7274682000,25.0440000000,-0.0350234173,0.0008025170,-0.2181256413,1.1300000000,-4.7800000000,0.0300000000,12.5870000000,6.0000000000,10.0000000000,5.0000000000,,1.8830824338,7.8127058867
2026-01-29 13:44:00.784768,61.0000000000,-78.6968925000,35.7274785000,25.0170000000,-0.0326981544,-0.0001008883,-0.2153049111,1.1500000000,-4.9300000000,0.0200000000,12.5870000000,6.0000000000,10.0000000000,5.0000000000,,1.6108678662,8.0346716194
2026-01-29 13:44:01.787849,62.0000000000,-78.6969479000,35.7274889000,25.0080000000,-0.0309091825,-0.0002463567,-0.2057422400,1.1400000000,-4.9400000000,0.0000000000,12.5870000000,6.0000000000,10.0000000000,5.0000000000,,1.4510069693,7.2797080396
2026-01-29 13:44:02.789780,63.0000000000,-78.6970026000,35.7274991000,25.0080000000,-0.0318876952,0.0002604847,-0.2054847926,1.1300000000,-4.9300000000,0.0000000000,12.5870000000,6.0000000000,10.0000000000,5.0000000000,,1.3576535579,6.3231341575
2026-01-29 13:44:04.369137,64.0000000000,-78.6970844000,35.7275144000,25.0080000000,-0.0325733460,-0.0002658644,-0.2023046613,1.1300000000,-4.8900000000,0.0000000000,12.5870000000,6.0000000000,10.0000000000,5.0000000000,,1.3072180324,7.1760387480
2026-01-29 13:44:05.747385,65.0000000000,-78.6971603000,35.7275286000,25.0090000000,-0.0310853124,-0.0007330637,-0.1992095858,1.1300000000,-4.8800000000,0.0000000000,12.5870000000,6.0000000000,10.0000000000,5.0000000000,,1.3817824230,8.7808872728
2026-01-29 13:44:06.753481,66.0000000000,-78.6972139000,35.7275387000,25.0110000000,-0.0329370946,0.0008604123,-0.2071372718,1.1300000000,-4.8700000000,0.0100000000,12.5870000000,6.0000000000,10.0000000000,5.0000000000,,1.4548284045,12.0990990676
2026-01-29 13:44:07.759270,67.0000000000,-78.6972678000,35.7275488000,25.0110000000,-0.0327099152,0.0000553045,-0.2030599117,1.1400000000,-4.8900000000,0.0100000000,12.5870000000,6.0000000000,10.0000000000,5.0000000000,,1.5013383995,11.9076125736
2026-01-29 13:44:08.765494,68.0000000000,-78.6973217000,35.7275590000,25.0110000000,-0.0329732634,-0.0003218220,-0.2051671594,1.1400000000,-4.8900000000,0.0100000000,12.5870000000,6.0000000000,10.0000000000,5.0000000000,,1.3153964624,8.5054618302
2026-01-29 13:44:09.770655,69.0000000000,-78.6973758000,35.7275692000,25.0110000000,-0.0319049731,-0.0005947735,-0.2017201781,1.1400000000,-4.8900000000,0.0100000000,12.5870000000,6.0000000000,10.0000000000,5.0000000000,,1.3639509924,8.5968297357
2026-01-29 13:44:10.773007,70.0000000000,-78.6974298000,35.7275793000,25.0110000000,-0.0326158926,0.0001772007,-0.2027568072,1.1400000000,-4.8700000000,0.0100000000,12.5870000000,6.0000000000,10.0000000000,5.0000000000,,1.3409851894,10.7695247984
2026-01-29 13:44:11.774893,71.0000000000,-78.6974839000,35.7275895000,25.0110000000,-0.0317062251,-0.0009287837,-0.1997378170,1.1400000000,-4.8700000000,0.0100000000,12.5870000000,6.0000000000,10.0000000000,5.0000000000,,1.2897133286,10.8950769658
2026-01-29 13:44:12.776069,72.0000000000,-78.6975374000,35.7275995000,25.0100000000,-0.0330846421,0.0009213101,-0.2072411627,1.1400000000,-4.8700000000,0.0100000000,12.5870000000,6.0000000000,10.0000000000,5.0000000000,,1.3897079019,9.2863173115
2026-01-29 13:44:13.777830,73.0000000000,-78.6975912000,35.7276097000,25.0080000000,-0.0329613462,-0.0000226216,-0.2045216858,1.1400000000,-4.9000000000,0.0000000000,12.5870000000,6.0000000000,10.0000000000,5.0000000000,,139.3876474766,4.4208241657
2026-01-29 13:44:14.778794,74.0000000000,-78.6976453000,35.7276199000,25.0080000000,-0.0321962424,0.0008016834,-0.2031790018,1.1400000000,-4.8900000000,0.0000000000,12.5870000000,6.0000000000,10.0000000000,5.0000000000,,140.2635554011,3.4725716486
2026-01-29 13:44:15.785284,75.0000000000,-78.6977017000,35.7276305000,25.0080000000,0.0011627844,-0.0045611272,-0.0530234575,0.9600000000,-4.1200000000,0.0100000000,12.5870000000,6.0000000000,10.0000000000,5.0000000000,,1.3426093282,19.0804599950
2026-01-29 13:44:16.791167,76.0000000000,-78.6977403000,35.7276376000,25.0040000000,0.0189830456,-0.0044759642,0.0488718078,0.6300000000,-2.7700000000,0.0000000000,12.5870000000,6.0000000000,10.0000000000,5.0000000000,,1.2174107490,20.7316378056
2026-01-29 13:44:17.798009,77.0000000000,-78.6977618000,35.7276415000,25.0050000000,0.0343660749,-0.0030641414,0.1403831542,0.2400000000,-1.0600000000,0.0000000000,12.5870000000,6.0000000000,10.0000000000,5.0000000000,,1.3255861317,10.2167946787
2026-01-29 13:44:18.804918,78.0000000000,-78.6977667000,35.7276424000,25.0010000000,0.0137080122,-0.0050488869,0.0638280436,0.0100000000,0.0000000000,0.0000000000,12.5870000000,6.0000000000,10.0000000000,5.0000000000,,1.3400000000,11.0480577400
2026-01-29 13:44:19.807939,79.0000000000,-78.6977648000,35.7276422000,24.9970000000,0.0019144013,-0.0055254553,0.0060965037,-0.0200000000,0.1900000000,0.0000000000,12.5870000000,6.0000000000,10.0000000000,5.0000000000,,1.2552859906,11.1069874617
2026-01-29 13:44:20.814390,80.0000000000,-78.6977683000,35.7276429000,24.9940000000,-0.0681273565,0.0050681736,-0.2961796820,0.3700000000,-1.5100000000,0.0000000000,12.5870000000,6.0000000000,10.0000000000,5.0000000000,,515.5652770654,4.6014730929
2026-01-29 13:44:21.821958,81.0000000000,-78.6977975000,35.7276485000,25.0030000000,-0.0788891315,0.0078792647,-0.3577325642,0.9300000000,-3.8900000000,0.0000000000,12.5870000000,6.0000000000,10.0000000000,5.0000000000,,439.4827460382,8.0509085692
2026-01-29 13:44:22.827617,82.0000000000,-78.6978457000,35.7276578000,25.0070000000,-0.0391225629,-0.0033959439,-0.2243967950,1.1100000000,-4.6400000000,0.0000000000,12.5870000000,6.0000000000,10.0000000000,5.0000000000,,1.1388148674,13.4480996878
2026-01-29 13:44:23.830982,83.0000000000,-78.6978985000,35.7276679000,25.0010000000,-0.0350969695,-0.0043355194,-0.2216244042,1.1400000000,-4.8800000000,0.0000000000,12.5870000000,6.0000000000,10.0000000000,5.0000000000,,1.1647494491,12.1951886558
2026-01-29 13:44:24.833040,84.0000000000,-78.6979536000,35.7276782000,25.0000000000,-0.0328236930,-0.0043804464,-0.2118196040,1.1500000000,-4.9700000000,0.0000000000,12.5870000000,6.0000000000,10.0000000000,5.0000000000,,1.2142736143,13.1895558378
2026-01-29 13:44:25.838069,85.0000000000,-78.6980088000,35.7276885000,25.0000000000,-0.0325134061,-0.0050362744,-0.2057882100,1.1500000000,-4.9600000000,0.0000000000,12.5870000000,6.0000000000,10.0000000000,5.0000000000,,545.0477200172,6.2056829592
2026-01-29 13:44:26.843148,86.0000000000,-78.6980639000,35.7276988000,25.0010000000,-0.0311619807,-0.0049889344,-0.1991593540,1.1400000000,-4.9100000000,0.0000000000,12.5870000000,6.0000000000,10.0000000000,5.0000000000,,868.5341756662,0.0377987431
2026-01-29 13:44:27.848863,87.0000000000,-78.6981178000,35.7277088000,25.0020000000,-0.0341063701,-0.0049049705,-0.2058070749,1.1400000000,-4.9000000000,0.0000000000,12.5870000000,6.0000000000,10.0000000000,5.0000000000,,339.2300010751,4.4629621634
2026-01-29 13:44:28.851427,88.0000000000,-78.6981721000,35.7277190000,25.0040000000,-0.0330659784,-0.0049550426,-0.2027233094,1.1400000000,-4.8900000000,0.0000000000,12.5870000000,6.0000000000,10.0000000000,5.0000000000,,1.2358339454,8.2175683300
2026-01-29 13:44:29.853970,89.0000000000,-78.6982259000,35.7277291000,25.0050000000,-0.0336887278,-0.0044007618,-0.2059517056,1.1500000000,-4.8900000000,0.0000000000,12.5870000000,6.0000000000,10.0000000000,5.0000000000,,1.2182054257,11.6339850953
2026-01-29 13:44:30.858839,90.0000000000,-78.6982802000,35.7277393000,25.0050000000,-0.0326054618,-0.0046994463,-0.2002833486,1.1400000000,-4.8800000000,0.0000000000,12.5870000000,6.0000000000,10.0000000000,5.0000000000,,1.2496400665,12.7080661821
2026-01-29 13:44:31.865078,91.0000000000,-78.6983339000,35.7277495000,25.0050000000,-0.0334324203,-0.0048666233,-0.2048778534,1.1400000000,-4.8800000000,0.0000000000,12.5870000000,6.0000000000,10.0000000000,5.0000000000,,1.3644801413,10.5680859479
2026-01-29 13:44:32.871475,92.0000000000,-78.6983880000,35.7277597000,25.0050000000,-0.0321857482,-0.0054617776,-0.2015687376,1.1400000000,-4.8800000000,0.0000000000,12.5870000000,6.0000000000,10.0000000000,5.0000000000,,1.3270178682,9.0411503390
2026-01-29 13:44:33.877134,93.0000000000,-78.6984414000,35.7277697000,25.0050000000,-0.0337120891,-0.0042052642,-0.2087715566,1.1400000000,-4.8900000000,0.0000000000,12.5870000000,6.0000000000,10.0000000000,5.0000000000,,1.2280983262,8.6303452183
2026-01-29 13:44:34.883554,94.0000000000,-78.6984955000,35.7277799000,25.0060000000,-0.0328556001,-0.0048924834,-0.2040660232,1.1500000000,-4.9100000000,0.0000000000,12.5870000000,6.0000000000,10.0000000000,5.0000000000,,1.1697483893,9.8730053313
2026-01-29 13:44:36.743210,95.0000000000,-78.6985984000,35.7277993000,25.0070000000,-0.0314846709,-0.0050661466,-0.1994061321,1.1400000000,-4.8800000000,0.0000000000,12.5870000000,6.0000000000,10.0000000000,5.0000000000,,780.9741989919,0.0115636881
2026-01-29 13:44:37.749284,96.0000000000,-78.6986522000,35.7278094000,25.0070000000,-0.0329747833,-0.0050202901,-0.2033417076,1.1400000000,-4.8600000000,0.0000000000,12.5870000000,6.0000000000,10.0000000000,5.0000000000,,509.3190736458,4.7069944772
2026-01-29 13:44:38.755903,97.0000000000,-78.6987057000,35.7278195000,25.0070000000,-0.0153949335,-0.0079348711,-0.1329385787,1.1100000000,-4.7500000000,0.0000000000,12.5870000000,6.0000000000,10.0000000000,5.0000000000,,448.3866369202,5.2330803930
2026-01-29 13:44:39.757634,98.0000000000,-78.6987529000,35.7278283000,25.0020000000,0.0087194638,-0.0091590621,-0.0113324337,0.8600000000,-3.7100000000,0.0000000000,12.5870000000,6.0000000000,10.0000000000,5.0000000000,,915.9589518280,0.0109144202
2026-01-29 13:44:40.763725,99.0000000000,-78.6987864000,35.7278344000,25.0010000000,0.0285098366,-0.0085056191,0.1006024554,0.5200000000,-2.2500000000,0.0000000000,12.5870000000,6.0000000000,10.0000000000,5.0000000000,,880.8392017920,0.0107100942
2026-01-29 13:44:41.765958,100.0000000000,-78.6988018000,35.7278372000,25.0010000000,0.0263286382,-0.0085044596,0.1154075190,0.1400000000,-0.5800000000,0.0000000000,12.5870000000,6.0000000000,10.0000000000,5.0000000000,,755.9033808931,0.0121189557
2026-01-29 13:44:42.772299,101.0000000000,-78.6988031000,35.7278374000,24.9970000000,0.0061443672,-0.0104247192,0.0315973498,0.0000000000,0.1300000000,0.0000000000,12.5870000000,6.0000000000,10.0000000000,5.0000000000,,762.8730246059,0.0154002264
2026-01-29 13:44:43.774019,102.0000000000,-78.6988007000,35.7278372000,24.9930000000,-0.0116811413,-0.0102420179,-0.0511506647,0.0000000000,0.1500000000,0.0000000000,12.5870000000,6.0000000000,10.0000000000,5.0000000000,,731.5151175545,0.0161634835
2026-01-29 13:44:44.776981,103.0000000000,-78.6988086000,35.7278389000,24.9930000000,-0.0727797002,0.0011040366,-0.3108654916,0.5100000000,-2.0400000000,-0.0100000000,12.5870000000,6.0000000000,10.0000000000,5.0000000000,,660.2211169989,0.0131744440
2026-01-29 13:44:45.782713,104.0000000000,-78.6988433000,35.7278458000,25.0020000000,-0.0586389527,-0.0038566568,-0.2838099599,1.0200000000,-4.2100000000,-0.0100000000,12.5870000000,6.0000000000,10.0000000000,5.0000000000,,676.8610156657,0.0112983506
2026-01-29 13:44:46.787822,105.0000000000,-78.6988930000,35.7278555000,25.0020000000,-0.0366982110,-0.0095122568,-0.2210323662,1.1300000000,-4.7200000000,0.0000000000,12.5870000000,6.0000000000,10.0000000000,5.0000000000,,708.4524982189,0.0108621721
2026-01-29 13:44:47.789737,106.0000000000,-78.6989469000,35.7278659000,24.9980000000,-0.0346478447,-0.0095581263,-0.2154006660,1.1500000000,-4.8900000000,0.0000000000,12.5870000000,6.0000000000,10.0000000000,5.0000000000,,763.4532506594,0.0122064583
2026-01-29 13:44:48.790827,107.0000000000,-78.6990016000,35.7278763000,24.9980000000,-0.0351230465,-0.0100829173,-0.2120551914,1.1700000000,-4.9600000000,0.0000000000,12.5870000000,6.0000000000,10.0000000000,5.0000000000,,676.5253029655,0.0144499262
2026-01-29 13:44:49.811925,108.0000000000,-78.6990624000,35.7278878000,24.9980000000,-0.0336792395,-0.0093991822,-0.2033929527,1.1700000000,-4.9400000000,0.0000000000,12.5870000000,6.0000000000,10.0000000000,5.0000000000,,698.8470176093,0.0155189345
2026-01-29 13:44:51.746810,109.0000000000,-78.6991660000,35.7279075000,25.0010000000,-0.0335663110,-0.0100703901,-0.1993693411,1.1700000000,-4.8800000000,0.0000000000,12.5870000000,6.0000000000,10.0000000000,5.0000000000,,705.0503919270,0.0139991642
2026-01-29 13:44:52.748663,110.0000000000,-78.6992197000,35.7279178000,25.0020000000,-0.0345710963,-0.0101137934,-0.2039185017,1.1700000000,-4.8700000000,0.0000000000,12.5870000000,6.0000000000,10.0000000000,5.0000000000,,506.2950401416,0.0975410695
2026-01-29 13:44:53.750520,111.0000000000,-78.6992736000,35.7279282000,25.0020000000,-0.0348257534,-0.0103564886,-0.2041628659,1.1700000000,-4.8800000000,0.0000000000,12.5870000000,6.0000000000,10.0000000000,5.0000000000,,479.3581287599,0.1132539491
2026-01-29 13:44:54.752070,112.0000000000,-78.6993271000,35.7279385000,25.0020000000,-0.0352220982,-0.0094155474,-0.2081280053,1.1800000000,-4.9000000000,0.0000000000,12.5870000000,6.0000000000,10.0000000000,5.0000000000,,592.2158188255,0.0234063774
2026-01-29 13:44:55.753390,113.0000000000,-78.6993814000,35.7279489000,25.0040000000,-0.0333315916,-0.0106356423,-0.2010915428,1.1700000000,-4.9000000000,0.0000000000,12.5870000000,6.0000000000,10.0000000000,5.0000000000,,452.1538019757,0.0228160485
2026-01-29 13:44:56.755683,114.0000000000,-78.6994352000,35.7279593000,25.0040000000,-0.0337034501,-0.0098472247,-0.2038515061,1.1700000000,-4.8800000000,0.0000000000,12.5870000000,6.0000000000,10.0000000000,5.0000000000,,307.7830390498,0.0315859708
2026-01-29 13:44:57.761867,115.0000000000,-78.6994893000,35.7279697000,25.0040000000,-0.0324962027,-0.0105127282,-0.2002540231,1.1700000000,-4.8800000000,0.0000000000,12.5870000000,6.0000000000,10.0000000000,5.0000000000,,306.4320265766,0.0528336356
2026-01-29 13:44:58.763470,116.0000000000,-78.6995429000,35.7279800000,25.0040000000,-0.0340848938,-0.0099720312,-0.2052689046,1.1600000000,-4.8700000000,0.0000000000,12.5870000000,6.0000000000,10.0000000000,5.0000000000,,526.2381250299,0.0446106036
2026-01-29 13:44:59.764417,117.0000000000,-78.6995967000,35.7279903000,25.0040000000,-0.0337627754,-0.0096326005,-0.2035473138,1.1700000000,-4.8800000000,0.0000000000,12.5870000000,6.0000000000,10.0000000000,5.0000000000,,521.4403400374,0.0259305912
2026-01-29 13:45:00.765465,118.0000000000,-78.6996504000,35.7280006000,25.0040000000,-0.0343363397,-0.0099991923,-0.2056407034,1.1700000000,-4.8900000000,0.0000000000,12.5870000000,6.0000000000,10.0000000000,5.0000000000,,210.1344142996,0.0745629867
2026-01-29 13:45:01.770267,119.0000000000,-78.6997046000,35.7280110000,25.0050000000,-0.0329253487,-0.0105992295,-0.2006920129,1.1700000000,-4.8900000000,0.0000000000,12.5870000000,6.0000000000,10.0000000000,5.0000000000,,326.6686571359,0.0732107434
2026-01-29 13:45:02.776224,120.0000000000,-78.6997584000,35.7280214000,25.0050000000,-0.0337732658,-0.0105499709,-0.2033399045,1.1600000000,-4.8700000000,0.0000000000,12.5870000000,6.0000000000,10.0000000000,5.0000000000,,446.4089182402,0.0280006044
2026-01-29 13:45:03.782833,121.0000000000,-78.6998123000,35.7280317000,25.0040000000,-0.0335762799,-0.0108716581,-0.2025428712,1.1700000000,-4.8800000000,0.0000000000,12.5870000000,6.0000000000,10.0000000000,5.0000000000,,324.2047602100,0.0352587901
2026-01-29 13:45:04.788360,122.0000000000,-78.6998659000,35.7280420000,25.0040000000,-0.0342749096,-0.0100991838,-0.2061493844,1.1600000000,-4.8800000000,0.0000000000,12.5870000000,6.0000000000,10.0000000000,5.0000000000,,307.3362364771,0.0370407710
2026-01-29 13:45:06.727884,123.0000000000,-78.6999676000,35.7280615000,25.0010000000,0.0095768012,-0.0149698118,-0.0128077948,0.8900000000,-3.7500000000,0.0000000000,12.5870000000,6.0000000000,10.0000000000,5.0000000000,,190.2072180008,0.1315383584
2026-01-29 13:45:07.742219,124.0000000000,-78.7000016000,35.7280678000,24.9990000000,0.0281095803,-0.0142459413,0.0950127617,0.5400000000,-2.3000000000,0.0000000000,12.5870000000,6.0000000000,10.0000000000,5.0000000000,,224.7921689384,0.1551682973
2026-01-29 13:45:08.743572,125.0000000000,-78.7000175000,35.7280707000,25.0000000000,0.0276599787,-0.0142312422,0.1174952015,0.1500000000,-0.6200000000,0.0000000000,12.5870000000,6.0000000000,10.0000000000,5.0000000000,,329.5810459491,0.0499428713
2026-01-29 13:45:09.749898,126.0000000000,-78.7000192000,35.7280710000,24.9960000000,0.0063494775,-0.0164002609,0.0337975472,0.0000000000,0.1200000000,0.0000000000,12.5870000000,6.0000000000,10.0000000000,5.0000000000,,177.7456280745,0.0181943783
2026-01-29 13:45:10.751267,127.0000000000,-78.7000168000,35.7280708000,24.9920000000,-0.0328890830,-0.0140403705,-0.1314966381,0.0300000000,0.0200000000,0.0000000000,12.5870000000,6.0000000000,10.0000000000,5.0000000000,,0.0000000000,0.0000343630
2026-01-29 13:45:11.757003,128.0000000000,-78.7000283000,35.7280732000,24.9930000000,-0.0769007131,-0.0038253423,-0.3201393485,0.6000000000,-2.3900000000,-0.0100000000,12.5870000000,6.0000000000,10.0000000000,5.0000000000,,0.0000000000,0.0000343630
2026-01-29 13:45:12.762565,129.0000000000,-78.7000663000,35.7280810000,25.0020000000,-0.0518168770,-0.0119828535,-0.2568033934,1.0800000000,-4.3400000000,-0.0100000000,12.5870000000,6.0000000000,10.0000000000,5.0000000000,,0.0000000000,0.0000343630
2026-01-29 13:45:13.764584,130.0000000000,-78.7001167000,35.7280912000,25.0010000000,-0.0365368612,-0.0155972801,-0.2199839801,1.1500000000,-4.7400000000,0.0000000000,12.5870000000,6.0000000000,10.0000000000,5.0000000000,,0.0000000000,0.0000343630
2026-01-29 13:45:14.769548,131.0000000000,-78.7001705000,35.7281017000,24.9980000000,-0.0370267369,-0.0161261745,-0.2172046155,1.1700000000,-4.9100000000,0.0000000000,12.5870000000,6.0000000000,10.0000000000,5.0000000000,,153.5615184061,0.0296897106
2026-01-29 13:45:15.772075,132.0000000000,-78.7002253000,35.7281122000,24.9980000000,-0.0360085033,-0.0155029865,-0.2085925341,1.1900000000,-4.9800000000,0.0000000000,12.5870000000,6.0000000000,10.0000000000,5.0000000000,,261.1978868928,0.0607123695
2026-01-29 13:45:16.774230,133.0000000000,-78.7002779000,35.7281223000,24.9960000000,0.0033228036,-0.0211751536,-0.0450822487,1.0100000000,-4.2200000000,0.0000000000,12.5870000000,6.0000000000,10.0000000000,5.0000000000,,306.1016939516,0.0443306903
2026-01-29 13:45:17.776418,134.0000000000,-78.7003178000,35.7281298000,24.9950000000,0.0212810803,-0.0205801111,0.0578444786,0.6800000000,-2.8600000000,0.0000000000,12.5870000000,6.0000000000,10.0000000000,5.0000000000,,440.3451406186,0.0263726592
2026-01-29 13:45:18.781741,135.0000000000,-78.7003404000,35.7281340000,24.9960000000,0.0354943089,-0.0193307679,0.1392914951,0.2800000000,-1.1300000000,0.0000000000,12.5870000000,6.0000000000,10.0000000000,5.0000000000,,346.7320999729,0.0322625027
2026-01-29 13:45:19.783195,136.0000000000,-78.7003457000,35.7281350000,24.9950000000,0.0121171298,-0.0219443906,0.0579819530,0.0300000000,-0.0200000000,0.0000000000,12.5870000000,6.0000000000,10.0000000000,5.0000000000,,190.7312922627,0.0367407300
2026-01-29 13:45:20.789434,137.0000000000,-78.7003438000,35.7281349000,24.9910000000,0.0009338064,-0.0224007685,0.0030061281,0.0000000000,0.1900000000,0.0000000000,12.5870000000,6.0000000000,10.0000000000,5.0000000000,,79.2968355567,0.0168622720
2026-01-29 13:45:22.747243,138.0000000000,-78.7003310000,35.7281596000,24.9910000000,-0.3400460482,-0.0386437513,0.1010093540,3.6700000000,1.1200000000,-0.0100000000,12.5870000000,6.0000000000,10.0000000000,5.0000000000,,168.1251251228,0.0515863471
2026-01-29 13:45:23.754420,139.0000000000,-78.7003162000,35.7281975000,24.9960000000,-0.2220734060,-0.0291660968,0.0521239303,4.5700000000,1.3600000000,0.0000000000,12.5870000000,6.0000000000,10.0000000000,5.0000000000,,441.7999253370,0.0716405864
2026-01-29 13:45:24.759558,140.0000000000,-78.7003004000,35.7282400000,24.9930000000,-0.2119100094,-0.0286842249,0.0474252254,4.8000000000,1.3900000000,0.0000000000,12.5870000000,6.0000000000,10.0000000000,5.0000000000,,449.2912492666,0.0302680239
2026-01-29 13:45:25.761367,141.0000000000,-78.7002846000,35.7282837000,24.9950000000,-0.2096644640,-0.0290292315,0.0494619422,4.9000000000,1.4100000000,0.0000000000,12.5870000000,6.0000000000,10.0000000000,5.0000000000,,241.6536672310,0.1289570719
2026-01-29 13:45:27.439427,142.0000000000,-78.7002604000,35.7283513000,24.9920000000,0.0050260960,-0.0252512135,-0.0124135716,3.4400000000,0.9800000000,0.0000000000,12.5870000000,6.0000000000,10.0000000000,5.0000000000,,249.8814883173,0.0814840662
2026-01-29 13:45:28.744183,143.0000000000,-78.7002503000,35.7283802000,24.9960000000,0.1387002766,-0.0289926454,-0.0448282361,1.3400000000,0.3700000000,0.0000000000,12.5870000000,6.0000000000,10.0000000000,5.0000000000,,425.2789182436,0.0311210699
2026-01-29 13:45:29.748210,144.0000000000,-78.7002483000,35.7283858000,24.9970000000,0.0824018866,-0.0274190176,-0.0225977693,0.1000000000,0.0300000000,0.0000000000,12.5870000000,6.0000000000,10.0000000000,5.0000000000,,354.7629922860,0.0284517644
2026-01-29 13:45:30.753857,145.0000000000,-78.7002485000,35.7283847000,24.9930000000,0.0133280465,-0.0263054948,-0.0021426852,-0.1800000000,-0.0400000000,0.0000000000,12.5870000000,6.0000000000,10.0000000000,5.0000000000,,296.9118512671,0.0501990288
2026-01-29 13:45:31.755124,146.0000000000,-78.7002474000,35.7283824000,24.9900000000,0.0483433716,-0.0202868581,0.2233627439,-0.2900000000,0.7500000000,0.0000000000,12.5870000000,6.0000000000,10.0000000000,5.0000000000,,344.1905449571,0.0576193704
2026-01-29 13:45:32.761248,147.0000000000,-78.7002255000,35.7283769000,24.9910000000,0.0785961673,-0.0118980585,0.3341938257,-0.8200000000,3.2300000000,-0.0100000000,12.5870000000,6.0000000000,10.0000000000,5.0000000000,,356.1321782744,0.0349807198
2026-01-29 13:45:33.767149,148.0000000000,-78.7001803000,35.7283674000,24.9920000000,0.0450699627,-0.0211810004,0.2349617034,-1.1000000000,4.5300000000,0.0000000000,12.5870000000,6.0000000000,10.0000000000,5.0000000000,,278.0000000000,0.0374605466
2026-01-29 13:45:34.769671,149.0000000000,-78.7001280000,35.7283569000,24.9850000000,0.0387953557,-0.0229078364,0.2187006325,-1.1300000000,4.7900000000,-0.0100000000,12.5870000000,6.0000000000,10.0000000000,5.0000000000,,238.2145908114,0.0517289465
2026-01-29 13:45:35.772012,150.0000000000,-78.7000736000,35.7283464000,24.9830000000,0.0408745185,-0.0224792026,0.2144264281,-1.1500000000,4.9100000000,-0.0100000000,12.5870000000,6.0000000000,10.0000000000,5.0000000000,,185.6525216428,0.0598603533
2026-01-29 13:45:36.776178,151.0000000000,-78.7000130000,35.7283348000,24.9830000000,0.0400084816,-0.0224703178,0.2063900530,-1.1700000000,4.9500000000,-0.0100000000,12.5870000000,6.0000000000,10.0000000000,5.0000000000,,87.5262160028,0.0284539833
2026-01-29 13:45:37.780550,152.0000000000,-78.6999577000,35.7283242000,24.9820000000,0.0387938097,-0.0231406316,0.1997688115,-1.1700000000,4.8900000000,-0.0100000000,12.5870000000,6.0000000000,10.0000000000,5.0000000000,,0.0000000000,0.0000565100
2026-01-29 13:45:38.782373,153.0000000000,-78.6999034000,35.7283136000,24.9830000000,0.0387596153,-0.0230896007,0.2005669177,-1.1700000000,4.8600000000,-0.0100000000,12.5870000000,6.0000000000,10.0000000000,5.0000000000,,81.5599163463,0.0856805721
2026-01-29 13:45:39.784032,154.0000000000,-78.6998493000,35.7283031000,24.9830000000,0.0386283994,-0.0230952315,0.2009159476,-1.1600000000,4.8400000000,-0.0100000000,12.5870000000,6.0000000000,10.0000000000,5.0000000000,,255.4962537050,0.1114275035
2026-01-29 13:45:40.786398,155.0000000000,-78.6997956000,35.7282926000,24.9800000000,0.0383134522,-0.0229585115,0.2037903666,-1.1600000000,4.8500000000,-0.0100000000,12.5870000000,6.0000000000,10.0000000000,5.0000000000,,311.9722172011,0.0500554113
2026-01-29 13:45:41.787699,156.0000000000,-78.6997416000,35.7282821000,24.9810000000,0.0381842330,-0.0234974064,0.2020571530,-1.1500000000,4.8400000000,-0.0100000000,12.5870000000,6.0000000000,10.0000000000,5.0000000000,,372.1882019588,0.0350446222
2026-01-29 13:45:42.800280,157.0000000000,-78.6996881000,35.7282717000,24.9800000000,0.0391167738,-0.0231109820,0.2058470696,-1.1600000000,4.8600000000,-0.0100000000,12.5870000000,6.0000000000,10.0000000000,5.0000000000,,426.9980985970,0.0246725881
2026-01-29 13:45:43.802985,158.0000000000,-78.6996340000,35.7282611000,24.9810000000,0.0368691608,-0.0226928890,0.2011955082,-1.1500000000,4.8500000000,-0.0100000000,12.5870000000,6.0000000000,10.0000000000,5.0000000000,,436.4822731260,0.0247909806
2026-01-29 13:45:44.806228,159.0000000000,-78.6995803000,35.7282507000,24.9820000000,0.0380341746,-0.0229405370,0.2035168409,-1.1500000000,4.8500000000,-0.0100000000,12.5870000000,6.0000000000,10.0000000000,5.0000000000,,438.0623935669,0.0291325106
2026-01-29 13:45:45.811668,160.0000000000,-78.6995263000,35.7282402000,24.9840000000,0.0380624346,-0.0234971531,0.2027992755,-1.1500000000,4.8400000000,-0.0100000000,12.5870000000,6.0000000000,10.0000000000,5.0000000000,,454.5725327395,0.0268181610
2026-01-29 13:45:46.818427,161.0000000000,-78.6994727000,35.7282297000,24.9840000000,0.0381942764,-0.0243246518,0.2046512365,-1.1500000000,4.8500000000,-0.0100000000,12.5870000000,6.0000000000,10.0000000000,5.0000000000,,498.0000000000,0.0163809834
2026-01-29 13:45:47.825796,162.0000000000,-78.6994185000,35.7282192000,24.9840000000,0.0360890515,-0.0230956431,0.1988244951,-1.1500000000,4.8400000000,-0.0100000000,12.5870000000,6.0000000000,10.0000000000,5.0000000000,,517.1524326383,0.0165999583
2026-01-29 13:45:48.830823,163.0000000000,-78.6993648000,35.7282088000,24.9850000000,0.0378675051,-0.0241135526,0.2027918994,-1.1400000000,4.8300000000,-0.0100000000,12.5870000000,6.0000000000,10.0000000000,5.0000000000,,539.0750576545,0.0171399940
2026-01-29 13:45:49.837816,164.0000000000,-78.6993109000,35.7281983000,24.9850000000,0.0369472839,-0.0243373048,0.1995215416,-1.1500000000,4.8300000000,-0.0100000000,12.5870000000,6.0000000000,10.0000000000,5.0000000000,,485.8528181424,0.0175088476
2026-01-29 13:45:50.839680,165.0000000000,-78.6992573000,35.7281879000,24.9850000000,0.0381814390,-0.0229222700,0.2043589056,-1.1500000000,4.8400000000,-0.0100000000,12.5870000000,6.0000000000,10.0000000000,5.0000000000,,485.4380293173,0.0171312034
2026-01-29 13:45:51.844812,166.0000000000,-78.6992033000,35.7281774000,24.9860000000,0.0360628217,-0.0235435572,0.1980487555,-1.1500000000,4.8500000000,-0.0100000000,12.5870000000,6.0000000000,10.0000000000,5.0000000000,,540.8198670362,0.0125806723
2026-01-29 13:45:53.104159,167.0000000000,-78.6991335000,35.7281639000,24.9880000000,0.0377941132,-0.0232766848,0.2040436119,-1.1500000000,4.8400000000,-0.0100000000,12.5870000000,6.0000000000,10.0000000000,5.0000000000,,336.3689903517,0.0214215708
2026-01-29 13:45:54.112277,168.0000000000,-78.6990796000,35.7281534000,24.9880000000,0.0361865088,-0.0235369932,0.2003233284,-1.1500000000,4.8400000000,-0.0100000000,12.5870000000,6.0000000000,10.0000000000,5.0000000000,,463.4287354138,0.0192790714
2026-01-29 13:45:55.117287,169.0000000000,-78.6990258000,35.7281429000,24.9880000000,0.0372169912,-0.0236649103,0.2016051263,-1.1500000000,4.8300000000,-0.0100000000,12.5870000000,6.0000000000,10.0000000000,5.0000000000,,508.0637403455,0.0169296939
2026-01-29 13:45:56.118613,170.0000000000,-78.6989717000,35.7281324000,24.9880000000,0.0352762267,-0.0242285524,0.1976810694,-1.1500000000,4.8300000000,-0.0100000000,12.5870000000,6.0000000000,10.0000000000,5.0000000000,,616.6726041646,0.0161909116
2026-01-29 13:45:57.120972,171.0000000000,-78.6989184000,35.7281221000,24.9910000000,0.0384340100,-0.0229883417,0.2057969719,-1.1500000000,4.8400000000,0.0000000000,12.5870000000,6.0000000000,10.0000000000,5.0000000000,,617.6252930830,0.0135625439
2026-01-29 13:45:58.122461,172.0000000000,-78.6988644000,35.7281116000,24.9920000000,0.0359018818,-0.0234568436,0.2003606558,-1.1500000000,4.8500000000,0.0000000000,12.5870000000,6.0000000000,10.0000000000,5.0000000000,,731.2980643325,0.0195856503
2026-01-29 13:45:59.130643,173.0000000000,-78.6988106000,35.7281011000,24.9900000000,0.0374268070,-0.0237575080,0.2027150095,-1.1500000000,4.8400000000,0.0000000000,12.5870000000,6.0000000000,10.0000000000,5.0000000000,,595.3757807422,0.0166999946
2026-01-29 13:46:00.137806,174.0000000000,-78.6987566000,35.7280906000,24.9880000000,0.0361028351,-0.0232221112,0.1998580247,-1.1500000000,4.8400000000,-0.0100000000,12.5870000000,6.0000000000,10.0000000000,5.0000000000,,687.4313032855,0.0126330352
2026-01-29 13:46:01.145280,175.0000000000,-78.6987029000,35.7280802000,24.9900000000,0.0373965278,-0.0222825296,0.2019262165,-1.1500000000,4.8300000000,-0.0100000000,12.5870000000,6.0000000000,10.0000000000,5.0000000000,,606.4631368057,0.0175683259
2026-01-29 13:46:02.151867,176.0000000000,-78.6986490000,35.7280697000,24.9920000000,0.0359040312,-0.0241017118,0.2000502646,-1.1500000000,4.8400000000,0.0000000000,12.5870000000,6.0000000000,10.0000000000,5.0000000000,,681.8310529873,0.0149333453
2026-01-29 13:46:03.153801,177.0000000000,-78.6985954000,35.7280593000,24.9920000000,0.0376523584,-0.0234504864,0.2045926899,-1.1500000000,4.8300000000,0.0000000000,12.5870000000,6.0000000000,10.0000000000,5.0000000000,,927.8032861702,0.0116974998
2026-01-29 13:46:04.158466,178.0000000000,-78.6985417000,35.7280489000,24.9920000000,0.0335876644,-0.0238480847,0.1910157204,-1.1500000000,4.8300000000,0.0000000000,12.5870000000,6.0000000000,10.0000000000,5.0000000000,,982.1190969603,0.0155001407
2026-01-29 13:46:05.164559,179.0000000000,-78.6984918000,35.7280392000,24.9870000000,-0.0042915228,-0.0286711641,0.0382740796,-0.9300000000,3.9600000000,0.0000000000,12.5870000000,6.0000000000,10.0000000000,5.0000000000,,882.2310711083,0.0157822979
2026-01-29 13:46:06.166172,180.0000000000,-78.6984547000,35.7280322000,24.9860000000,-0.0224636812,-0.0277997777,-0.0659854263,-0.5900000000,2.5900000000,-0.0100000000,12.5870000000,6.0000000000,10.0000000000,5.0000000000,,776.6778227433,0.0123299672
2026-01-29 13:46:07.696729,181.0000000000,-78.6984315000,35.7280280000,24.9970000000,-0.0210968331,-0.0286484435,-0.0972054154,-0.0400000000,0.1600000000,0.0000000000,12.5870000000,6.0000000000,10.0000000000,5.0000000000,,353.2078927555,9.3181685451
2026-01-29 13:46:08.925371,182.0000000000,-78.6984330000,35.7280281000,24.9950000000,-0.0002368248,-0.0298623312,-0.0091150487,0.0200000000,-0.2400000000,0.0000000000,12.5870000000,6.0000000000,10.0000000000,5.0000000000,,299.5740721764,5.9446449309
2026-01-29 13:46:09.936789,183.0000000000,-78.6984305000,35.7280273000,24.9920000000,0.0776876733,-0.0191742443,0.2934204638,-0.3300000000,1.3300000000,0.0000000000,12.5870000000,6.0000000000,10.0000000000,5.0000000000,,572.2777590964,3.1492420087
2026-01-29 13:46:10.939654,184.0000000000,-78.6984028000,35.7280215000,24.9930000000,0.0862313733,-0.0148858316,0.3559080064,-0.9100000000,3.7400000000,-0.0100000000,12.5870000000,6.0000000000,10.0000000000,5.0000000000,,807.5256109850,0.0117437055
2026-01-29 13:46:11.945234,185.0000000000,-78.6983556000,35.7280118000,24.9940000000,0.0424234346,-0.0286385752,0.2273946702,-1.1000000000,4.6000000000,0.0000000000,12.5870000000,6.0000000000,10.0000000000,5.0000000000,,883.9532512159,0.0115686376
2026-01-29 13:46:12.950751,186.0000000000,-78.6983024000,35.7280014000,24.9890000000,0.0381560996,-0.0299376920,0.2127440572,-1.1200000000,4.8300000000,0.0000000000,12.5870000000,6.0000000000,10.0000000000,5.0000000000,,308.2677137339,7.8556313282
2026-01-29 13:46:13.956827,187.0000000000,-78.6982479000,35.7279909000,24.9900000000,0.0406705216,-0.0290965792,0.2115872502,-1.1500000000,4.9200000000,0.0000000000,12.5870000000,6.0000000000,10.0000000000,5.0000000000,,1.1653217107,9.2643142528
2026-01-29 13:46:14.963411,188.0000000000,-78.6981926000,35.7279802000,24.9900000000,0.0386092253,-0.0295956992,0.2010481805,-1.1600000000,4.9100000000,0.0000000000,12.5870000000,6.0000000000,10.0000000000,5.0000000000,,452.4240030841,2.5681900772
2026-01-29 13:46:15.965894,189.0000000000,-78.6981379000,35.7279696000,24.9910000000,0.0391973443,-0.0298606083,0.1986078471,-1.1700000000,4.8700000000,0.0000000000,12.5870000000,6.0000000000,10.0000000000,5.0000000000,,207.3550450541,5.8479771673
2026-01-29 13:46:16.971669,190.0000000000,-78.6980834000,35.7279590000,24.9920000000,0.0379352681,-0.0298459008,0.1951745600,-1.1700000000,4.8400000000,0.0000000000,12.5870000000,6.0000000000,10.0000000000,5.0000000000,,1.4623823671,7.3437673845
2026-01-29 13:46:18.034991,191.0000000000,-78.6980246000,35.7279474000,24.9930000000,0.0401133709,-0.0300444718,0.2046270370,-1.1700000000,4.8400000000,0.0000000000,12.5870000000,6.0000000000,10.0000000000,5.0000000000,,1.6186118141,7.5239907158
2026-01-29 13:46:19.037660,192.0000000000,-78.6979706000,35.7279367000,24.9930000000,0.0377841033,-0.0290519632,0.1998601854,-1.1700000000,4.8500000000,0.0000000000,12.5870000000,6.0000000000,10.0000000000,5.0000000000,,1.3790902326,7.4896259158
2026-01-29 13:46:20.039832,193.0000000000,-78.6979168000,35.7279262000,24.9930000000,0.0396900401,-0.0291287452,0.2024694085,-1.1700000000,4.8400000000,0.0000000000,12.5870000000,6.0000000000,10.0000000000,5.0000000000,,1.4270467846,7.7650830109
2026-01-29 13:46:21.045840,194.0000000000,-78.6978629000,35.7279155000,24.9930000000,0.0382287689,-0.0297453683,0.1997121871,-1.1700000000,4.8400000000,0.0000000000,12.5870000000,6.0000000000,10.0000000000,5.0000000000,,1.2628488405,10.7341515475
2026-01-29 13:46:22.052233,195.0000000000,-78.6978091000,35.7279049000,24.9950000000,0.0386704989,-0.0304455068,0.2017516345,-1.1600000000,4.8400000000,0.0000000000,12.5870000000,6.0000000000,10.0000000000,5.0000000000,,1.3470029043,9.3371552742
2026-01-29 13:46:23.053859,196.0000000000,-78.6977551000,35.7278943000,24.9950000000,0.0375461765,-0.0303438548,0.1970187128,-1.1600000000,4.8400000000,0.0000000000,12.5870000000,6.0000000000,10.0000000000,5.0000000000,,1.3124638746,11.3647281902
2026-01-29 13:46:24.060849,197.0000000000,-78.6977017000,35.7278838000,24.9930000000,0.0397275575,-0.0290176738,0.2041065693,-1.1600000000,4.8300000000,0.0000000000,12.5870000000,6.0000000000,10.0000000000,5.0000000000,,1.3760613472,12.5555297150
2026-01-29 13:46:25.067747,198.0000000000,-78.6976479000,35.7278732000,24.9930000000,0.0383934453,-0.0296367332,0.2012908906,-1.1700000000,4.8500000000,0.0000000000,12.5870000000,6.0000000000,10.0000000000,5.0000000000,,1.2184659222,10.1387835319
2026-01-29 13:46:26.073253,199.0000000000,-78.6975940000,35.7278626000,24.9930000000,0.0380763263,-0.0287262574,0.2017449141,-1.1600000000,4.8400000000,0.0000000000,12.5870000000,6.0000000000,10.0000000000,5.0000000000,,1.1620522699,10.1480943373
2026-01-29 13:46:27.075004,200.0000000000,-78.6975401000,35.7278520000,24.9940000000,0.0375587679,-0.0291344151,0.1981455535,-1.1600000000,4.8400000000,0.0000000000,12.5870000000,6.0000000000,10.0000000000,5.0000000000,,1.1918609037,10.0366588220
2026-01-29 13:46:28.082519,201.0000000000,-78.6974864000,35.7278414000,24.9950000000,0.0396920703,-0.0309896600,0.2029985189,-1.1600000000,4.8200000000,0.0000000000,12.5870000000,6.0000000000,10.0000000000,5.0000000000,,1.1356902673,12.1004947412
2026-01-29 13:46:29.667242,202.0000000000,-78.6974004000,35.7278245000,24.9940000000,0.0380519293,-0.0286746006,0.2004378736,-1.1600000000,4.8400000000,0.0000000000,12.5870000000,6.0000000000,10.0000000000,5.0000000000,,1.4056417414,10.5218023740
2026-01-29 13:46:30.673434,203.0000000000,-78.6973467000,35.7278139000,24.9930000000,0.0379277915,-0.0285642892,0.2022110224,-1.1600000000,4.8400000000,0.0000000000,12.5870000000,6.0000000000,10.0000000000,5.0000000000,,1.2094664813,12.1189453121
2026-01-29 13:46:31.743338,204.0000000000,-78.6972872000,35.7278022000,24.9940000000,0.0374018773,-0.0306753702,0.1966788322,-1.1600000000,4.8200000000,0.0000000000,12.5870000000,6.0000000000,10.0000000000,5.0000000000,,1.1980318239,11.5612410376
2026-01-29 13:46:32.748691,205.0000000000,-78.6972339000,35.7277917000,24.9950000000,0.0391547196,-0.0293285660,0.2045785040,-1.1600000000,4.8300000000,0.0000000000,12.5870000000,6.0000000000,10.0000000000,5.0000000000,,1.4552373711,8.6323888645
2026-01-29 13:46:33.754275,206.0000000000,-78.6971798000,35.7277811000,24.9950000000,0.0372155719,-0.0301052406,0.1980366409,-1.1600000000,4.8300000000,0.0000000000,12.5870000000,6.0000000000,10.0000000000,5.0000000000,,1.4210447382,9.7923974576
2026-01-29 13:46:34.755972,207.0000000000,-78.6971263000,35.7277705000,24.9950000000,0.0391656011,-0.0303620473,0.2032261640,-1.1600000000,4.8400000000,0.0000000000,12.5870000000,6.0000000000,10.0000000000,5.0000000000,,1.3234238859,10.9357604072
2026-01-29 13:46:35.757613,208.0000000000,-78.6970724000,35.7277599000,24.9950000000,0.0374771506,-0.0299164020,0.2000240237,-1.1600000000,4.8400000000,0.0000000000,12.5870000000,6.0000000000,10.0000000000,5.0000000000,,1.7385200384,9.3438584132
2026-01-29 13:46:36.759468,209.0000000000,-78.6970186000,35.7277494000,24.9950000000,0.0389722511,-0.0288979206,0.2003744990,-1.1600000000,4.8300000000,0.0000000000,12.5870000000,6.0000000000,10.0000000000,5.0000000000,,1.9046865520,7.1514290329
2026-01-29 13:46:37.760629,210.0000000000,-78.6969646000,35.7277387000,24.9950000000,0.0366991237,-0.0302360151,0.1975892186,-1.1600000000,4.8300000000,0.0000000000,12.5870000000,6.0000000000,10.0000000000,5.0000000000,,1.5435652632,8.2982976774
2026-01-29 13:46:38.762796,211.0000000000,-78.6969113000,35.7277282000,24.9950000000,0.0391963944,-0.0306285378,0.2045653313,-1.1600000000,4.8300000000,0.0000000000,12.5870000000,6.0000000000,10.0000000000,5.0000000000,,1.2317569569,13.1298794035
2026-01-29 13:46:39.770066,212.0000000000,-78.6968574000,35.7277176000,24.9940000000,0.0380882435,-0.0293394160,0.2023285627,-1.1700000000,4.8500000000,0.0000000000,12.5870000000,6.0000000000,10.0000000000,5.0000000000,,1.3835634479,15.1383313991
2026-01-29 13:46:40.771634,213.0000000000,-78.6968035000,35.7277070000,24.9950000000,0.0378068238,-0.0300935917,0.2004541010,-1.1600000000,4.8400000000,0.0000000000,12.5870000000,6.0000000000,10.0000000000,5.0000000000,,2.0017603830,11.2637311116
2026-01-29 13:46:41.777003,214.0000000000,-78.6967495000,35.7276964000,24.9950000000,0.0373392776,-0.0309831556,0.1986723095,-1.1600000000,4.8300000000,0.0000000000,12.5870000000,6.0000000000,10.0000000000,5.0000000000,,1.8810945314,9.2238013959
2026-01-29 13:46:42.778147,215.0000000000,-78.6966979000,35.7276863000,24.9940000000,0.0048180302,-0.0341002345,0.0754738376,-1.0000000000,4.2100000000,0.0000000000,12.5870000000,6.0000000000,10.0000000000,5.0000000000,,1.6748972717,9.0179457635
2026-01-29 13:46:43.780486,216.0000000000,-78.6966575000,35.7276785000,24.9920000000,-0.0157885216,-0.0352456123,-0.0282021128,-0.6900000000,2.9400000000,0.0000000000,12.5870000000,6.0000000000,10.0000000000,5.0000000000,,1.9605014664,7.9257903117
2026-01-29 13:46:44.786155,217.0000000000,-78.6966333000,35.7276740000,24.9950000000,-0.0364854708,-0.0330481417,-0.1380996704,-0.2900000000,1.2700000000,0.0000000000,12.5870000000,6.0000000000,10.0000000000,5.0000000000,,2.1407608654,8.8356434315
2026-01-29 13:46:45.788867,218.0000000000,-78.6966266000,35.7276728000,24.9990000000,-0.0122057330,-0.0361207612,-0.0597179309,-0.0100000000,0.0000000000,0.0000000000,12.5870000000,6.0000000000,10.0000000000,5.0000000000,,2.0063005700,7.4340085843
2026-01-29 13:46:46.802156,219.0000000000,-78.6966281000,35.7276728000,24.9970000000,0.0000263189,-0.0363354757,-0.0053107217,0.0300000000,-0.2300000000,0.0000000000,12.5870000000,6.0000000000,10.0000000000,5.0000000000,,2.1022456081,7.3043193275
2026-01-29 13:46:48.746793,220.0000000000,-78.6966336000,35.7276695000,24.9960000000,0.2846642733,-0.0496907271,-0.1014051512,-1.4000000000,-0.5400000000,0.0000000000,12.5870000000,6.0000000000,10.0000000000,5.0000000000,,2.4699546735,5.7532360575
2026-01-29 13:46:49.752563,221.0000000000,-78.6966436000,35.7276465000,24.9970000000,0.3455919325,-0.0571350753,-0.1203733087,-3.7300000000,-1.2600000000,0.0000000000,12.5870000000,6.0000000000,10.0000000000,5.0000000000,,2.1678619291,6.1244363830
2026-01-29 13:46:50.758685,222.0000000000,-78.6966595000,35.7276080000,24.9960000000,0.2161578387,-0.0437143333,-0.0579433627,-4.5300000000,-1.5000000000,0.0000000000,12.5870000000,6.0000000000,10.0000000000,5.0000000000,,1.9803750641,5.4111511543
2026-01-29 13:46:51.760741,223.0000000000,-78.6966763000,35.7275658000,24.9900000000,0.2104617208,-0.0447127819,-0.0550329909,-4.7300000000,-1.5300000000,0.0000000000,12.5870000000,6.0000000000,10.0000000000,5.0000000000,,1.9171630578,8.3225716939
2026-01-29 13:46:52.762321,224.0000000000,-78.6966933000,35.7275221000,24.9900000000,0.1665537953,-0.0415019542,-0.0415988192,-4.7000000000,-1.5100000000,-0.0100000000,12.5870000000,6.0000000000,10.0000000000,5.0000000000,,1.9806452065,8.8664589048
2026-01-29 13:46:53.764088,225.0000000000,-78.6967081000,35.7274834000,24.9880000000,0.0293351915,-0.0389613137,0.0020167152,-3.7000000000,-1.1900000000,0.0000000000,12.5870000000,6.0000000000,10.0000000000,5.0000000000,,2.0959778580,5.3525448100
2026-01-29 13:46:54.766759,226.0000000000,-78.6967186000,35.7274557000,24.9890000000,-0.0778498426,-0.0407642797,0.0305500012,-2.2500000000,-0.7400000000,0.0000000000,12.5870000000,6.0000000000,10.0000000000,5.0000000000,,2.2302342824,5.7394547702
2026-01-29 13:46:55.773029,227.0000000000,-78.6967234000,35.7274427000,24.9930000000,-0.1269875318,-0.0426479317,0.0411487669,-0.5900000000,-0.2300000000,0.0000000000,12.5870000000,6.0000000000,10.0000000000,5.0000000000,,2.0568303744,7.3122396175
2026-01-29 13:46:56.779612,228.0000000000,-78.6967241000,35.7274414000,24.9940000000,-0.0410056785,-0.0406191014,0.0106287450,0.1400000000,-0.0100000000,0.0000000000,12.5870000000,6.0000000000,10.0000000000,5.0000000000,,1.9300766818,8.1361999825
2026-01-29 13:46:57.785899,229.0000000000,-78.6967238000,35.7274433000,24.9920000000,0.0070569925,-0.0406687520,0.0080929259,0.1700000000,0.0600000000,0.0000000000,12.5870000000,6.0000000000,10.0000000000,5.0000000000,,1.8989886089,6.7743280241
2026-01-29 13:46:58.791268,230.0000000000,-78.6967098000,35.7274406000,24.9910000000,0.1355009377,-0.0222958699,0.3004355729,-0.8800000000,2.4000000000,-0.0100000000,12.5870000000,6.0000000000,10.0000000000,5.0000000000,,1.6762403349,6.6306270949
2026-01-29 13:46:59.817692,231.0000000000,-78.6966722000,35.7274291000,24.9940000000,0.0960915834,-0.0336335935,0.2380467057,-1.6600000000,4.2000000000,-0.0100000000,12.5870000000,6.0000000000,10.0000000000,5.0000000000,,2.0472897001,8.6679050418
2026-01-29 13:47:00.823610,232.0000000000,-78.6966228000,35.7274133000,24.9870000000,0.0698805749,-0.0394333750,0.2001315951,-1.8000000000,4.5500000000,0.0000000000,12.5870000000,6.0000000000,10.0000000000,5.0000000000,,1.9615218186,9.3205677209
2026-01-29 13:47:01.830670,233.0000000000,-78.6965709000,35.7273967000,24.9820000000,0.0668094978,-0.0400611497,0.1969699860,-1.8200000000,4.6800000000,-0.0100000000,12.5870000000,6.0000000000,10.0000000000,5.0000000000,,1.7794981085,7.9689689406
2026-01-29 13:47:02.839428,234.0000000000,-78.6965178000,35.7273798000,24.9840000000,0.0628909171,-0.0410057306,0.1869225800,-1.8300000000,4.7100000000,-0.0100000000,12.5870000000,6.0000000000,10.0000000000,5.0000000000,,2.1021942203,6.9148547044
2026-01-29 13:47:03.849709,235.0000000000,-78.6964655000,35.7273632000,24.9870000000,0.0649146885,-0.0407514349,0.1880073994,-1.8200000000,4.6800000000,0.0000000000,12.5870000000,6.0000000000,10.0000000000,5.0000000000,,2.3156508170,6.1664694323
2026-01-29 13:47:04.851865,236.0000000000,-78.6964134000,35.7273467000,24.9870000000,0.0648273528,-0.0408964157,0.1858959794,-1.8200000000,4.6600000000,0.0000000000,12.5870000000,6.0000000000,10.0000000000,5.0000000000,,2.1290645371,6.7107144723
2026-01-29 13:47:05.859171,237.0000000000,-78.6963620000,35.7273302000,24.9870000000,0.0349655375,-0.0453360714,0.1192672029,-1.7800000000,4.5300000000,0.0000000000,12.5870000000,6.0000000000,10.0000000000,5.0000000000,,2.7153906727,6.1840547241
2026-01-29 13:47:06.865957,238.0000000000,-78.6963165000,35.7273157000,24.9840000000,-0.0119567299,-0.0477570891,0.0033301259,-1.3700000000,3.5100000000,0.0000000000,12.5870000000,6.0000000000,10.0000000000,5.0000000000,,3.1138020245,5.8155955015
2026-01-29 13:47:08.502657,239.0000000000,-78.6962746000,35.7273027000,24.6460000000,-0.0856610388,-0.0407227241,-0.1960108876,-0.2200000000,0.5900000000,0.8500000000,12.5870000000,6.0000000000,10.0000000000,5.0000000000,,3.4561948510,6.4474770731
2026-01-29 13:47:09.746564,240.0000000000,-78.6962723000,35.7273021000,22.9850000000,-0.0068297121,-0.0498437174,-0.0267740842,0.0000000000,-0.0800000000,1.5400000000,12.5870000000,6.0000000000,10.0000000000,5.0000000000,,2.9797775623,3.8753375708
2026-01-29 13:47:10.747560,241.0000000000,-78.6962738000,35.7273022000,21.4460000000,-0.0000003645,-0.0500040464,-0.0016545433,0.0200000000,-0.1300000000,1.4400000000,12.5870000000,6.0000000000,10.0000000000,5.0000000000,,3.1894483771,4.1438867253
2026-01-29 13:47:11.749590,242.0000000000,-78.6962752000,35.7273024000,19.9640000000,0.0010133628,-0.0497035868,0.0045946375,0.0200000000,-0.0800000000,1.4400000000,12.5870000000,6.0000000000,10.0000000000,5.0000000000,,3.2629402726,4.9574970604
2026-01-29 13:47:12.750845,243.0000000000,-78.6962760000,35.7273025000,18.4700000000,0.0003116225,-0.0500780120,0.0037024622,0.0200000000,-0.0300000000,1.4600000000,12.5870000000,6.0000000000,10.0000000000,5.0000000000,,2.5466338475,6.0639960433
2026-01-29 13:47:13.752056,244.0000000000,-78.6962762000,35.7273026000,16.9700000000,-0.0002091486,-0.0502758883,0.0006173250,0.0200000000,-0.0100000000,1.4600000000,12.5870000000,6.0000000000,10.0000000000,5.0000000000,,2.5620721256,5.8674804295
2026-01-29 13:47:14.753677,245.0000000000,-78.6962763000,35.7273026000,15.4690000000,-0.0006702233,-0.0509576723,-0.0017453423,0.0200000000,-0.0200000000,1.4600000000,12.5870000000,6.0000000000,10.0000000000,5.0000000000,,2.6439740723,6.0422377359
2026-01-29 13:47:15.760169,246.0000000000,-78.6962763000,35.7273026000,13.9720000000,-0.0003025941,-0.0494387709,-0.0014725270,0.0200000000,-0.0200000000,1.4600000000,12.5870000000,6.0000000000,10.0000000000,5.0000000000,,2.3576980877,6.2962030980
2026-01-29 13:47:16.762228,247.0000000000,-78.6962764000,35.7273026000,12.4760000000,-0.0005915206,-0.0502537042,-0.0018078467,0.0200000000,-0.0300000000,1.4600000000,12.5870000000,6.0000000000,10.0000000000,5.0000000000,,2.4060717390,5.2016299525
2026-01-29 13:47:17.763552,248.0000000000,-78.6962764000,35.7273026000,11.0130000000,-0.0003250361,-0.0497135147,-0.0017386097,0.0200000000,-0.0300000000,1.2600000000,12.5870000000,6.0000000000,10.0000000000,5.0000000000,,2.6754491156,5.8507898752
2026-01-29 13:47:18.768552,249.0000000000,-78.6962764000,35.7273027000,10.2340000000,-0.0003527810,-0.0498670153,-0.0016099502,0.0200000000,-0.0300000000,0.4200000000,12.5870000000,6.0000000000,10.0000000000,5.0000000000,,2.7628895747,5.2542321742
2026-01-29 13:47:19.770390,250.0000000000,-78.6962765000,35.7273027000,9.7960000000,0.0002594119,-0.0500922464,-0.0015068650,0.0200000000,-0.0300000000,0.4900000000,12.5870000000,6.0000000000,10.0000000000,5.0000000000,,2.6191641504,5.2694098032
2026-01-29 13:47:20.775477,251.0000000000,-78.6962765000,35.7273027000,9.2930000000,0.0002335614,-0.0498932265,-0.0015963651,0.0100000000,-0.0200000000,0.5200000000,12.5870000000,6.0000000000,10.0000000000,5.0000000000,,2.5737155997,6.7450202714
2026-01-29 13:47:21.782711,252.0000000000,-78.6962766000,35.7273027000,8.7860000000,0.0000144431,-0.0495534949,-0.0005244736,0.0100000000,-0.0200000000,0.5100000000,12.5870000000,6.0000000000,10.0000000000,5.0000000000,,2.5177085267,5.7139344914
2026-01-29 13:47:22.784317,253.0000000000,-78.6962766000,35.7273027000,8.2850000000,0.0004513289,-0.0488930866,-0.0006161830,0.0100000000,-0.0100000000,0.5000000000,12.5870000000,6.0000000000,10.0000000000,5.0000000000,,2.6344190152,5.0923726851
2026-01-29 13:47:23.786763,254.0000000000,-78.6962766000,35.7273028000,7.7820000000,0.0002735686,-0.0494268350,-0.0011466311,0.0100000000,-0.0100000000,0.5000000000,12.5870000000,6.0000000000,10.0000000000,5.0000000000,,3.0455784568,5.3585210918
2026-01-29 13:47:24.787648,255.0000000000,-78.6962766000,35.7273028000,7.2810000000,0.0000997547,-0.0505073220,-0.0008839426,0.0100000000,-0.0100000000,0.5000000000,12.5870000000,6.0000000000,10.0000000000,5.0000000000,,2.7136348689,3.5217183409
2026-01-29 13:47:25.797749,256.0000000000,-78.6962766000,35.7273028000,6.7770000000,0.0001642444,-0.0504927784,-0.0009825183,0.0100000000,-0.0100000000,0.5000000000,12.5870000000,6.0000000000,10.0000000000,5.0000000000,,2.8426268045,2.8430720813
2026-01-29 13:47:26.811736,257.0000000000,-78.6962766000,35.7273028000,6.2270000000,0.0002517180,-0.0498651266,-0.0011309695,0.0100000000,-0.0100000000,0.5000000000,12.5870000000,6.0000000000,10.0000000000,5.0000000000,,2.2290810074,4.5898208470
2026-01-29 13:47:27.813733,258.0000000000,-78.6962766000,35.7273027000,5.7250000000,0.0003091631,-0.0500968583,-0.0012519775,0.0100000000,-0.0100000000,0.4900000000,12.5870000000,6.0000000000,10.0000000000,5.0000000000,,2.3487393113,3.5517341686
2026-01-29 13:47:28.814977,259.0000000000,-78.6962766000,35.7273027000,5.2240000000,0.0001327223,-0.0501048900,-0.0012929984,0.0100000000,-0.0200000000,0.4900000000,12.5870000000,6.0000000000,10.0000000000,5.0000000000,,4.2256074560,1.3606037501
2026-01-29 13:47:29.817468,260.0000000000,-78.6962766000,35.7273027000,4.7220000000,0.0000086216,-0.0498626605,-0.0011825571,0.0100000000,-0.0200000000,0.4900000000,12.5870000000,6.0000000000,10.0000000000,5.0000000000,,4.1493976402,1.6533544172
2026-01-29 13:47:30.820746,261.0000000000,-78.6962766000,35.7273027000,4.2210000000,0.0004093924,-0.0497490503,-0.0012528020,0.0100000000,-0.0200000000,0.4900000000,12.5870000000,6.0000000000,10.0000000000,5.0000000000,,4.9091055128,2.3093741843
